,구,지점명,주소,위도,경도
0,강남구,강남대청점,서울특별시 강남구 개포로109길 5 강남종합사회복지관 1층 102호(개포동),37.4922493,127.074588
1,강남구,강남도곡로점,서울특별시 강남구 논현로57길 24 1층,37.4912481,127.0391111
2,강남구,강남도곡점,서울특별시 강남구 남부순환로361길 6 1층 106호 (도곡동),37.4856614,127.0375499
3,강남구,강남롯데점,서울시 강남구 선릉로64길 15 1층-2,37.4980613,127.0534476
4,강남구,강남선릉점,서울특별시 강남구 언주로98길 37,37.5046848,127.0448056
5,강남구,강남언주로점,서울특별시 강남구 테헤란로53길 62 101호,37.50737,127.0438145
6,강남구,강남인텔렉스점,서울특별시 강남구 논현동 261 현대인텔렉스빌딩 지하1층 1호,37.5117092,127.036271
7,강남구,강남일원점,서울특별시 강남구 일원로 95 (일원동),37.4856712,127.0835425
8,강남구,강남청담점,"서울특별시 강남구 학동로82길 21 (삼성동64, 제1층 코너상가)",37.5175921,127.0519363
9,강남구,강남푸르지오시티점,"서울특별시 강남구 역삼동 825-20(테헤란로4길 6,126호)",37.4977172,127.0291474
10,강남구,강남학동점,서울특별시 강남구 언주로150길 51,37.5221261,127.038334
11,강남구,강남IBC점,서울특별시 강남구 테헤란로 7길 8,37.4997517,127.031107
12,강남구,강남SLI점,서울특별시 강남구 선릉로69길 7 (역삼동),37.49840810000001,127.0511905
13,강남구,강남YMCA점,서울특별시 강남구 봉은사로37길 28 (논현동),37.5100163,127.0359388
14,강남구,개포1호점,서울특별시 강남구 선릉로 48 (개포동),37.4835667,127.0597262
15,강남구,개포2호점,서울특별시 강남구 개포로 512(개포동),37.4893117,127.0688124
16,강남구,개포5단지점,서울특별시 강남구 삼성로4길 17 주공아파트 상가동 105호,37.4875354,127.0686558
17,강남구,개포그린점,서울특별시 강남구 논현로4길 22,37.4730132,127.051905
18,강남구,개포본점,서울특별시 강남구 개포로28길 15 1층(개포동),37.478046,127.049942
19,강남구,개포주공점,서울특별시 강남구 삼성로 38 개포빌딩 1층,37.48865,127.0668327
20,강남구,개포타운점,"서울특별시 강남구 선릉로4길 5 제경빌딩 제1층 1,2호(개포동)",37.4823423,127.0616716
21,강남구,개포현대점,서울특별시 강남구 개포로 265 개포동 105호,37.4807801,127.0530065
22,강남구,거평타운점 B,서울특별시 강남구 봉은사로 129 (논현동),37.50588279999999,127.0283077
23,강남구,공항타워점,서울특별시 강남구 영동대로 513 B21호(삼성동),37.5101935,127.0585824
24,강남구,논현11호점,서울특별시 강남구 선릉로131길 4 (논현동),37.5179327,127.0405643
25,강남구,논현12호점,서울특별시 강남구 강남대로 128길 48(논현동),37.5111526,127.0256208
26,강남구,논현13호점,서울특별시 강남구 학동로43길 14 (논현동),37.5170337,127.037491
27,강남구,논현14호점,서울특별시 강남구 논현로149길 35 (논현동),37.5175833,127.0257227
28,강남구,논현2호점,서울특별시 강남구 언주로 712 (논현동),37.5172365,127.0357237
29,강남구,논현4호점,서울특별시 강남구 논현로 720(논현동),37.5163498,127.0298925
30,강남구,논현6호점,서울특별시 강남구 도산대로46길 11 (논현동),37.521248,127.0366212
31,강남구,논현건설회관점,"서울특별시 강남구 학동로37길 23, 1층 103호(논현동)",37.5168164,127.0342688
32,강남구,논현경복점,서울특별시 강남구 봉은사로43길 21(논현동),37.51053,127.0393775
33,강남구,논현본점,서울특별시 강남구 도산대로 30길 8 (논현동),37.5192657,127.0292484
34,강남구,논현스타우스점,서울특별시 강남구 강남대로124길 46(논현동),37.509731,127.0259809
35,강남구,논현스타점,서울특별시 강남구 봉은사로1길 42(논현동),37.5074326,127.0241434
36,강남구,논현제일점,서울특별시 강남구 선릉로 641 (논현동),37.5137306,127.0422707
37,강남구,논현중앙점,서울특별시 강남구 선릉로129길 20 (논현동),37.516077,127.0398381
38,강남구,논현타운점,서울특별시 강남구 언주로147길 37 (논현동),37.5190623,127.0312454
39,강남구,논현학나래점,서울특별시 강남구 강남대로136길 7(논현동),37.5131267,127.0213635
40,강남구,논현학동공원점,서울특별시 강남구 언주로147길 5(논현동),37.5198305,127.0339448
41,강남구,논현한어울림점,서울특별시 강남구 학동로12길 47(논현동),37.5099386,127.0278807
42,강남구,논현한영점,서울특별시 강남구 봉은사로 29길 4(논현동),37.5080208,127.0348673
43,강남구,논현흥산점,서울특별시 강남구 강남대로128길 69 1층 코너(논현동),37.5122451,127.0269855
44,강남구,대치10호점,서울특별시 강남구 역삼로64길 25 (대치동),37.4994391,127.0535637
45,강남구,대치11호점,서울 강남구 테헤란로 104길 12 (대치동)양유빌딩 1층,37.508213,127.0649345
46,강남구,대치16호점,서울 강남구 역삼로 63길 16(대치동),37.5022002,127.0522554
47,강남구,대치3호점,서울특별시 강남구 삼성로 151 (대치동),37.4920987,127.0625605
48,강남구,대치4호점,서울특별시 강남구 남부순환로 2921 (대치동),37.49345599999999,127.0597594
49,강남구,대치6호점,서울 강남구 삼성로 85길 19(대치동),37.50468499999999,127.0557109
50,강남구,대치7호점,서울 강남구 삼성로 86길 16(대치동),37.5057178,127.0587743
51,강남구,대치공원점,서울 강남구 삼성로 63길 21(대치동),37.4994092,127.0583955
52,강남구,대치나인점,서울특별시 강남구 테헤란로64길 14 101호(대치동),37.5039245,127.0509781
53,강남구,대치덕일점,서울특별시 강남구 역삼로 546(대치동),37.5042491,127.062861
54,강남구,대치동일점,서울 강남구 테헤란로 114길 38 (대치동)동일빌딩,37.50721679999999,127.0672571
55,강남구,대치마루점,서울 강남구 삼성로 71길 13(대치동),37.5019642,127.0578985
56,강남구,대치본점,서울 강남구 삼성로 331(대치동),37.50115,127.0592976
57,강남구,대치삼성로점,서울 강남구 역삼로 69길 13,37.5024704,127.0538138
58,강남구,대치삼화점,서울특별시 강남구 테헤란로114길 20 1층 101호(대치동),37.5083121,127.0667464
59,강남구,대치선릉로점,서울특별시 강남구 테헤란로68길 33 1층(대치동),37.5031666,127.0530982
60,강남구,대치승리점,서울특별시 강남구 삼성로82길 4 1층(대치동),37.5048018,127.058149
61,강남구,대치아이파크점,서울특별시 강남구 선릉로 224 상가동 104호(대치동),37.4953964,127.0534926
62,강남구,대치역점,"서울특별시 강남구 삼성로 155 제1층 제117호(대치동, 대치퍼스트)",37.4938946,127.0629079
63,강남구,대치우성점,"서울특별시 강남구 도곡로93길 9 1층(대치동, 대상빌딩)",37.5007973,127.0644705
64,강남구,대치으뜸점,서울 강남구 대치동 960-15번지,37.5040289,127.0596393
65,강남구,대치은마사거리점,서울특별시 강남구 삼성로 238 (대치동),37.4985996,127.0613913
66,강남구,대치점,서울특별시 강남구 대치동 511번지,37.4935161,127.0673376
67,강남구,대치코스모점,서울특별시 강남구 영동대로86길 10 지상 1층(대치동),37.5077721,127.0648902
68,강남구,대치한티점,서울특별시 강남구 도곡로69길 14 (대치동),37.4982176,127.0559733
69,강남구,도곡2호,서울 강남구 남부순환로365길 38 (도곡동),37.4877342,127.039916
70,강남구,도곡3호점,서울 강남구 강남대로44길 21 (도곡동),37.4862203,127.0352575
71,강남구,도곡래미안점,서울특별시 강남구 남부순환로 2803 도곡동 삼성래미안상가 120호,37.48966619999999,127.05112
72,강남구,도곡렉슬점,"서울특별시 강남구 선릉로 225 1층 141,142호(도곡동, 도곡렉슬 상가)",37.4952942,127.0526604
73,강남구,도곡본점,서울특별시 강남구 논현로34길 34 1층,37.4846733,127.0446873
74,강남구,도곡스타점,서울특별시 강남구 도곡동 954-18,37.4855873,127.0358559
75,강남구,도곡SEI점,서울특별시 강남구 언주로 30길 39 (도곡동),37.4887091,127.0532038
76,강남구,롯데캐논점,서울특별시 강남구 삼성동 테헤란로 607,37.5094615,127.0639722
77,강남구,르네상스점,서울특별시 강남구 테헤란로37길 15 (역삼동),37.5031143,127.040374
78,강남구,리갈펠리스점,"서울특별시 강남구 도산대로 35길 46 (신사동, 리갈펠리스)",37.5237108,127.0307011
79,강남구,매봉역점,서울특별시 강남구 논현로38길 46 1층 전체(도곡동),37.4856358,127.0453783
80,강남구,매봉점,서울특별시 강남구 논현로28길 56 1층(도곡동),37.4845742,127.0463665
81,강남구,삼성10호점,서울특별시 강남구 삼성로 115길 46 (삼성동),37.5139612,127.048401
82,강남구,삼성5호점,서울특별시 강남구 봉은사로 114길 40 (삼성동),37.512342,127.0653162
83,강남구,삼성8호점,서울특별시 강남구 봉은사로 63길 11 (삼성동),37.5120946,127.0468795
84,강남구,삼성대웅점,서울특별시 강남구 봉은사로 638 (삼성동),37.5147764,127.0650608
85,강남구,삼성동래미안점,서울특별시 강남구 선릉로 130길 20 (삼성동 래미안삼성2차아파트상가),37.5161739,127.0434589
86,강남구,삼성예술점,서울특별시 강남구 삼성동 156-13,37.50945249999999,127.0560546
87,강남구,삼성페이토점,서울특별시 강남구 테헤란로87길 9 1층(삼성동),37.5084084,127.0586761
88,강남구,삼성한전점,서울특별시 강남구 영동대로96길 12 (삼성동 상민빌딩),37.5107008,127.0635676
89,강남구,선릉스타점,서울특별시 강남구 봉은사로50길 19 제지하1층(역삼동),37.5088717,127.0434356
90,강남구,선릉오성점,서울특별시 강남구 선릉로 510 오성빌딩 1층 101호(삼성동),,
91,강남구,세곡리엔점,서울특별시 강남구 헌릉로590길 11 103호,37.4636638,127.1044593
92,강남구,세븐포이3호점,서울특별시 강남구 논현로 12길 19-9(개포동),37.4753423,127.0486365
93,강남구,수서사이룩스점,서울특별시 강남구 광평로 295 (수서동),37.48843979999999,127.1041681
94,강남구,수서역사1호점,서울특별시 강남구 광평로 지하 270 수서역사 지하1층 맞이방층 (수서동),,
95,강남구,수서역사2호점,서울특별시 강남구 광평로 지하 270 수서역사 지하2층 1번승강장 (수서동),37.4874685,127.1013245
96,강남구,수서역사3호점,서울특별시 강남구 광평로 지하 270 수서역사 지하2층 3번승강장 (수서동),37.4874685,127.1013245
97,강남구,수서역사4호점,서울특별시 강남구 광평로 지하 270 수서역사 지하2층 5번승강장(수서동),37.4874685,127.1013245
98,강남구,수서역사5호점,서울특별시 강남구 광평로 지하 270 지하2층 맞이방 내 일부(승강장입구)(수서동),37.485319,127.0939179
99,강남구,수서효성점,서울특별시 강남구 광평로 281 (수서동),37.4879723,127.1026505
100,강남구,신논현강남점,"서울특별시 강남구 봉은사로 140 1층 101,102,103,116,117,118호(역삼동)",37.5058877,127.0301071
101,강남구,신사4호점,서울특별시 강남구 도산대로15길 7 (신사동),37.5187027,127.0237964
102,강남구,신사5호점,서울특별시 강남구 강남대로162길 45 (신사동),37.5211006,127.0219709
103,강남구,신사가로수점,서울특별시 강남구 압구정로 114 신사빌딩 1층,37.5232467,127.0212902
104,강남구,신사대로점,"서울특별시 강남구 도산대로 157 지상1층(신사동, 신웅타워2)",37.5189909,127.0256365
105,강남구,신사로데오점,서울특별시 강남구 언주로172길 15 1층(신사동),37.5278076,127.0351838
106,강남구,신사본점,서울특별시 강남구 도산대로 124 대영빌딩 1층,37.5167639,127.0224944
107,강남구,신사한나래점,서울특별시 강남구 논현로 159길 10 (신사동),37.5230775,127.0273245
108,강남구,신사한남점,서울특별시 강남구 강남대로 632 (신사동) 106호,37.5182046,127.019356
109,강남구,압구정11호점,서울특별시 강남구 압구정로18길 5 (신사동),37.5245399,127.024372
110,강남구,압구정12호점,서울특별시 강남구 선릉로 157길 31 (신사동),37.5262182,127.0371683
111,강남구,압구정2점,서울특별시 강남구 압구정로28길 28 1층 지상 전체(신사동),37.5247342,127.0274998
112,강남구,압구정8호점,서울특별시 강남구 언주로 167길 21 (신사동),37.5263111,127.0313395
113,강남구,압구정로데오점,서울특별시 강남구 압구정로 344 (신사동),37.5276617,127.0398378
114,강남구,압구정본점,서울특별시 강남구 논현로157길 26 1층 101호(신사동),37.5221189,127.0259092
115,강남구,압구정칼릭스점,"서울특별시 강남구 논현로 164길 38 (신사동, 칼릭스빌)",37.5226113,127.0312222
116,강남구,역삼10호점,서울특별시 강남구 테헤란로19길 10 (역삼동),37.5007271,127.0337013
117,강남구,역삼14호점,서울특별시 강남구 논현로 105길 53 (역삼동),37.5051353,127.029989
118,강남구,역삼15호점,서울특별시 강남구 강남대로62길 18(역삼동),37.4903984,127.0330439
119,강남구,역삼17호점,서울특별시 강남구 논현로76길 10  (역삼동),37.4968362,127.0397531
120,강남구,역삼18호점,서울특별시 강남구 도곡로37길 14(역삼동),37.4945612,127.0449499
121,강남구,역삼22호점,서울특별시 강남구 언주로71길 9(역삼동),37.497325,127.0442513
122,강남구,역삼5호점,서울특별시 강남구 역삼로 151  (역삼동),37.4948853,127.0356504
123,강남구,역삼8호점,서울특별시 강남구 강남대로102길 11  (역삼동),37.5018853,127.0267173
124,강남구,역삼개나리점,"서울특별시 강남구 역삼로 306(역삼동, 개나리래미안 상가 1동 108호)",37.498551,127.0464387
125,강남구,역삼달샘점,서울특별시 강남구 테헤란로19길 29,37.5018542,127.0328001
126,강남구,역삼래미안점,"서울특별시 강남구 언주로 314 제1층 102호(역삼동, 강남프라자)",37.4958588,127.0464594
127,강남구,역삼명랑점,서울특별시 강남구 논현로 425 1층 104호(역삼동),37.49799540000001,127.0379322
128,강남구,역삼발렌타인점,서울 강남구 역삼동 832-10,37.49187999999999,127.0314259
129,강남구,역삼선릉로점,서울특별시 강남구 봉은사로48길 13 101호(역삼동),37.5086439,127.0416797
130,강남구,역삼세브란스점,"서울특별시 강남구 논현로64길 33 1층 3,4호(역삼동)",37.4940215,127.0432191
131,강남구,역삼스마일점,서울특별시 강남구 논현로102길 54,37.5060481,127.0394836
132,강남구,역삼스타공원점,서울특별시 강남구 논현로79길 25 한스빌라텔,37.49734249999999,127.0360893
133,강남구,역삼언주로점,서울특별시 강남구 언주로85길 24 1층 (역삼동),37.5009626,127.0412509
134,강남구,역삼영화점,서울특별시 강남구 역삼로19길 26 (역삼동),37.4967146,127.0375449
135,강남구,역삼우일점,서울특별시 강남구 봉은사로44길 39 지하1층(역삼동),37.5068371,127.0413273
136,강남구,역삼웰스토어점,서울특별시 강남구 논현로63길 7,37.4931358,127.0396637
137,강남구,역삼은석점,서울특별시 강남구 언주로79길 33 (역삼동),37.4986435,127.0414976
138,강남구,역삼은탑점 B,서울특별시 강남구 테헤란로14길 5  (역삼동),37.4990525,127.0332072
139,강남구,역삼진선점,"서울특별시 강남구 선릉로85길 8 1층 102호(역삼동, 유화빌딩)",37.5028306,127.0488465
140,강남구,역삼창조점,"서울특별시 강남구 논현로85길 13 1층(역삼동, 근영빌딩)",37.4990603,127.0362459
141,강남구,역삼코넬점,서울특별시 강남구 언주로 93길 28-8(역삼동) 코넬빌딩 1층,37.5038775,127.0395962
142,강남구,역삼타운점,서울특별시 강남구 강남대로84길 28 청송빌딩 1층 전체(역삼동),37.504571,127.0232446
143,강남구,역삼테헤란점,서울특별시 강남구 논현로94길 23 1층(역삼동),37.5028301,127.0382197
144,강남구,역삼특허점,서울특별시 강남구 테헤란로8길 46 (역삼동),37.4958355,127.0322874
145,강남구,역삼포은점,"서울특별시 강남구 테헤란로8길 28 1층(역삼동, 송강원)",37.4970284,127.0317326
146,강남구,역삼프레스티점,서울특별시 강남구 강남대로78길 12  (역삼동),37.4948095,127.0303544
147,강남구,역삼하이츠점,서울특별시 강남구 테헤란로25길 6-9 1층(역삼동),37.5012469,127.0358864
148,강남구,역삼한서점,서울특별시 강남구 테헤란로 38길 11(역삼동),37.501265,127.0417684
149,강남구,역삼한은점,서울특별시 강남구 테헤란로 204 1층(역삼동),37.5009681,127.038714
150,강남구,역삼해피점,서울특별시 강남구 언주로 107길 29 (역삼동),37.5071893,127.0368834
151,강남구,역삼GFC점,서울 강남구 역삼동 테헤란로 152 비2층 강남파이낸스센터,37.4999821,127.0364005
152,강남구,역삼MG스타점,서울특별시 강남구 테헤란로 335 1층(역삼동),37.50471599999999,127.0482288
153,강남구,일원대청점,서울특별시 강남구 일원로3길 42,37.4921567,127.0836103
154,강남구,일원미래점,"서울특별시 강남구 일원로5길 58 1층 102,103호",37.4921599,127.0848406
155,강남구,청담2점 B,서울특별시 강남구 선릉로132길 7 (청담동),37.5181277,127.0417179
156,강남구,청담7호점,서울특별시 강남구 도산대로 96길 13 (청담동),37.5236374,127.0509536
157,강남구,청담그린점,서울특별시 강남구 도산대로 81길 39 (청담동),37.5266954,127.046678
158,강남구,청담대우점,서울특별시 강남구 도산대로99길 26 1층 102호(청담동),37.5263474,127.0512451
159,강남구,청담루나점,서울특별시 강남구 학동로 523,37.5201056,127.0560505
160,강남구,청담좋은날점,"서울특별시 강남구 영동대로128길 5 청구A 101호(삼성동,청구상가)",37.5198576,127.0582766
161,강남구,청담튼튼병원점,서울특별시 강남구 학동로97길 20 청담빌딩 1층 (청담동),37.52134720000001,127.0545473
162,강남구,청담황해점,서울특별시 강남구 삼성로 149길 32 (청담동),37.5231842,127.0449227
163,강남구,코엑스아셈타워점,서울특별시 강남구 영동대로 517 아셈타워 1층(삼성동),37.5130417,127.0597688
164,강남구,포스코센터점,서울 강남구 삼성로 85길 11 (대치동)롯데캐슬아파트 생활편익시설동,37.5046812,127.056471
165,강남구,포이4호점,서울특별시 강남구 개포20길 24-16(개포동),37.4959339,127.0799057
166,강남구,포이5호점,서울특별시 강남구 개포로 24길 6(개포동),37.4783932,127.0480698
167,강남구,포이사거리점,서울특별시 강남구 개포로 209(개포동),37.4786152,127.0456565
168,강남구,포이중앙점,서울특별시 강남구 논현로 18길 14-1(개포동),37.4776962,127.046108
169,강남구,학동사거리점,서울특별시 강남구 도산대로 335 1층,37.523334,127.038512
170,강남구,학동점,서울특별시 강남구 논현동 논현로124길 27,37.5128117,127.0337695
171,강남구,한신점,서울특별시 강남구 테헤란로 322  (역삼동),37.503206,127.0465684
172,강남구,KT강남점,서울특별시 강남구 역삼동 675-3 102호202호,37.5046955,127.0412371
173,강남구,L7강남점,"서울특별시 강남구 테헤란로 415 B101, 102호(삼성동)",37.5056545,127.0515387
174,강동구,가톨릭병원점,서울특별시 강동구 천호동 357번지 12호,37.5424463,127.1250917
175,강동구,강동경희대병원점,서울특별시 강동구 동남로 892 (상일동),37.5528301,127.1571983
176,강동구,강동고덕점,서울특별시 강동구 동남로75길 13-25 1층 101호,37.5530312,127.1554565
177,강동구,강동구민회관점,서울특별시 강동구 상암로 171(천호동),37.5461373,127.141341
178,강동구,강동길동점,서울특별시 강동구 양재대로 113길 22(길동),37.53823149999999,127.138742
179,강동구,강동상일여고점,서울 강동구 상일동 상일로7길 6 (상일동 1층),37.5499949,127.1724122
180,강동구,강동성내로점,서울특별시 강동구 성내로14길 42(성내동),37.5261668,127.1260365
181,강동구,강동성내점,서울특별시 강동구 천호옛길 14(성내동),37.530681,127.121414
182,강동구,강동성심점,서울특별시 강동구 성안로 143 천호동,37.5360387,127.1343532
183,강동구,강동오륜점,"서울특별시 강동구 양재대로81길 30,1층 (성내동)",37.5231754,127.132659
184,강동구,강동자이점,서울 강동구 길동 명일로18길 30 1층,37.5379368,127.1479255
185,강동구,강동파밀리에점,서울특별시 강동구 천호동 447-17 강동역 신동아파밀리에테라자 B106호,37.53588999999999,127.132407
186,강동구,강동팰리스점,"서울특별시 강동구 천호대로 1077 제상가동 1층 103동 103호,104호(래미안강동팰리스)",37.538274,127.14567
187,강동구,강일3단지점,서울특별시 강동구 아리수로 93가길 40(강일동),37.5775179,127.1718393
188,강동구,강일리엔파크점,서울특별시 강동구 상일동 상일로74 고덕리앤파크3단지상가 101호,37.5523456,127.175784
189,강동구,강일아리수점,서울특별시 강동구 아리수로 419 리슈빌 오피스텔 105호(강일동),37.5645656,127.1734286
190,강동구,강일제일점,서울특별시 강동구 아리수로93가길 25 강일리버파크 제상가동 제1층 제102호,37.5677604,127.171895
191,강동구,고덕광문점,서울특별시 강동구 고덕동 동남로81길 10,37.5606516,127.1561175
192,강동구,고덕리앤파크점,서울특별시 강동구 상일로 137 1층(고덕동),37.559183,127.1707565
193,강동구,고덕역점,서울특별시 강동구 명일동 46-1 명성프라자 110호,37.5546089,127.1540692
194,강동구,길동4호점,서울특별시 강동구 명일로 210 (길동),37.537263,127.1460832
195,강동구,길동6호점,서울특별시 강동구 천호대로 1123 (길동),37.5350019,127.1364879
196,강동구,길동도고점,서울특별시 강동구 진황도로 105(길동),37.5355111,127.1381136
197,강동구,길동무궁화점,서울특별시 강동구 천중로53길 13,37.5413732,127.1451627
198,강동구,길동복조리점,서울특별시 강동구 양재대로116길 46 1층(길동),37.5380323,127.1428258
199,강동구,길동본점,서울특별시 강동구 양재대로 122가길 46(길동),37.5439783,127.1431945
200,강동구,길동스위트점,서울특별시 강동구 양재대로111길 15 1층 113호,37.5367643,127.1385858
201,강동구,길동와이시티점,"서울특별시 강동구 천호대로175길 42 근린생활시설 104호(길동, 강동와이시티)",37.5353438,127.137414
202,강동구,길동우성점,서울특별시 강동구 길동 천호대로193길 401층 101호,37.5363093,127.1447734
203,강동구,길동으뜸점,"서울특별시 강동구 천중로 49길 26 (길동, 재정빌라)",37.5420442,127.1431272
204,강동구,길동제일점,서울시 강동구 천호대로 1203 1층3호,37.5353842,127.1447004
205,강동구,길동타임점,"서울특별시 강동구 양재대로115길 60, 1층(길동)",37.5395636,127.1370644
206,강동구,길동해그린점,서울특별시 강동구 길동 명일로19길 12,37.5395001,127.1460497
207,강동구,둔촌2호점,서울시 강동구 양재대로 1400,37.5309057,127.1378476
208,강동구,명일삼익점,서울특별시 강동구 양재대로128길 47(명일동),37.5444525,127.1454636
209,강동구,명일역점,서울특별시 강동구 구천면로 402 1층 편의점(천호동),37.5505738,127.143171
210,강동구,명일이마트점,서울특별시 강동구 동남로75길 19 1층 3호(명일동),37.5540924,127.1551627
211,강동구,명일점,서울특별시 강동구 양재대로 1655 (명일동),37.5533158,127.1439183
212,강동구,보훈병원입구점,서울특별시 강동구 진황도로61길 30,37.5286485,127.1449018
213,강동구,상일삼성점,"서울특별시 강동구 상일동 상일로6길 39, 1층",37.5506832,127.1724034
214,강동구,서울보훈병원점,"서울특별시 강동구 진황도로61길 53, 1층 (둔촌동, 보훈병원내)",37.528778,127.1476066
215,강동구,성내2호점,서울시 강동구 풍성로 162,37.5304839,127.1298465
216,강동구,성내본점,서울특별시 강동구 양재대로91길 77 1층(성내동),37.5287054,127.1318335
217,강동구,성내삼성점,서울특별시 강동구 성내로9길 35 1층 (성내동),37.5304459,127.1250701
218,강동구,성내시네마점,서울특별시 강동구 성내동 천호옛길 88,37.536419,127.1258037
219,강동구,성내으뜸점,서울특별시 강동구 성안로3길 13 1층(성내동),37.5257021,127.1287526
220,강동구,성내타운점,서울특별시 강동구 천호옛길 48 1층(성내동),37.5333608,127.1233615
221,강동구,성내파크프라자점,서울특별시 강동구 성내동 양재대로89길 16 파크프라자104105호,37.5268203,127.1345665
222,강동구,암사역점,서울특별시 강동구 올림픽로93길 9 (암사동),37.549124,127.126443
223,강동구,암사중앙점,서울특별시 강동구 고덕로24길 30 (암사동),37.5533546,127.1353945
224,강동구,암사햇살점,서울특별시 강동구 구천면로47가길 33 (암사동),37.5489289,127.1328495
225,강동구,암사현대점,서울특별시 강동구 상암로 5길 49 (암사동),37.5525517,127.1275528
226,강동구,암사희망점,서울특별시 강동구 암사길 25 1층,37.551753,127.1320257
227,강동구,천호5호점,서울특별시 강동구 양재대로 1517 (천호동,37.5412029,127.1408103
228,강동구,천호공원점,서울 강동구 천호동 올림픽로 721 (천호동),37.5457433,127.1257073
229,강동구,천호대로점,"서울특별시 강동구 천호대로 1116, 1층 102-2호(성내동)",37.5346265,127.1351842
230,강동구,천호본점,"서울특별시 강동구 상암로41길 26 (천호동, 1층)",37.5472078,127.1413536
231,강동구,천호브라운스톤점,서울 강동구 상암로 288-29(천호동),37.5487284,127.129115
232,강동구,천호사거리점,서울특별시 강동구 천호동 453-24,37.5388052,127.1275388
233,강동구,천호삼성점,서울특별시 강동구 성안로 163(천호동),37.5377141,127.1352606
234,강동구,천호성덕점,서울특별시 강동구 구천면로64길 22 1층 1호2호,37.5495697,127.1397704
235,강동구,천호쌍용점,서울특별시 강동구 올림픽로 659(천호동),37.540229,127.1235413
236,강동구,천호아마빌레점,서울특별시 강동구 구천면로 41길 30 1층(천호동),37.5468912,127.1324295
237,강동구,천호역점,서울특별시 강동구 올림픽로 654(천호동),37.5397815,127.1241882
238,강동구,천호타운점,서울특별시 강동구 구천면로42길 69,37.54448180000001,127.1369749
239,강동구,천호피렌체점,서울특별시 강동구 올림픽로 667(천호동),37.5411051,127.1239396
240,강동구,천호현대점,"서울특별시 강동구 진황도로23길 19, 1층 (천호동)",37.5279339,127.1452708
241,강동구,S고덕역점,서울시 강동구 고덕로 지하 253 x9-10,37.5555874,127.1475975
242,강동구,S굽은다리역점,서울시 강동구 양재대로 지하 1572 x20-22,37.5374092,127.1411034
243,강동구,S길동역점,서울시 강동구 양재대로 지하 1408 x3-5,37.5374092,127.1411034
244,강동구,S둔촌동역점,서울특별시 강동구 양재대로 지하 1369(둔촌동),37.527657,127.136231
245,강동구,S명일역점,서울특별시 강동구 양재대로 지하 1632 (명일동),37.5374092,127.1411034
246,강동구,S상일동역점,서울특별시 강동구 고덕로 지하 359 (상일동),37.5555874,127.1475975
247,강북구,강북구청점,서울특별시 강북구 도봉로89길 5 (수유동),37.6387657,127.0258431
248,강북구,강북대오점,서울특별시 강북구 미아동 솔샘로 315,37.617362,127.0272959
249,강북구,강북미아점,서울특별시 강북구 미아동 월계로 21 1층,37.6103403,127.0323449
250,강북구,강북번동점,서울특별시 강북구 한천로 981 1층,37.6366142,127.0315476
251,강북구,강북사일구역점,서울특별시 강북구 삼양로 518 1층,37.6492642,127.013992
252,강북구,강북삼양로점,서울특별시 강북구 미아동 솔매로36길 47,37.6236751,127.0224886
253,강북구,강북삼양점,서울특별시 강북구 삼양로 198 (미아동),37.6214559,127.0206022
254,강북구,강북솔샘길점,서울특별시 강북구 솔샘로 215 (미아동),37.6201629,127.0165944
255,강북구,강북영어마을점,서울특별시 강북구 삼각산로 13 (수유동),37.6381345,127.0059019
256,강북구,강북예술회관점,서울특별시 강북구 삼각산로 95 1층,37.6406212,127.014802
257,강북구,강북오현로점,서울특별시 강북구 번동 오현로25다길 73,37.6260076,127.0337924
258,강북구,강북화계초교점,서울특별시 강북구 도봉로34길 25 1층,37.62217649999999,127.0295181
259,강북구,광산사거리점,서울특별시 강북구 한천로 1081,37.6423671,127.0228999
260,강북구,도봉세무서점,서울특별시 강북구 솔샘로 67길 67 (미아동),37.6200693,127.027477
261,강북구,미아래미안점,서울특별시 강북구 삼양로19길 25 107동 지하 1층 3-2호,37.6142301,127.0208782
262,강북구,미아로데오점,서울특별시 강북구 도봉로10가길 5 (미아동),37.6132998,127.0308703
263,강북구,미아롯데점,서울특별시 강북구 도봉로 10길 34 (미아동),37.6142171,127.0310872
264,강북구,미아빅토리아호텔점,서울특별시 강북구 월계로3길 15 호텔빅토리아별관상가 1호5호(미아동),37.6106397,127.0308369
265,강북구,미아사랑점,서울특별시 강북구 도봉로8길 57,37.6115031,127.0329448
266,강북구,미아삼거리역점,서울특별시 강북구 숭인로 73 (미아동),37.6124206,127.0296789
267,강북구,미아삼양본점,서울특별시 강북구 미아동 솔매로 52,37.624833,127.0180045
268,강북구,미아성우점,"서울특별시 강북구 삼양로24길 19 101동상가103호(미아동, 현대성우아파트)",37.6171833,127.0220243
269,강북구,미아솔매점,서울특별시 강북구 솔매로 108 미아동,37.6255649,127.0242244
270,강북구,미아으뜸점,서울특별시 강북구 솔샘로67길 137 1층(미아동),37.6230389,127.0262534
271,강북구,미아제일점,서울 강북구 미아동 도봉로8길 21,37.6125297,127.0314455
272,강북구,번동3호점,서울특별시 강북구 한천로109길 49 (번동),37.6275532,127.0415677
273,강북구,번동매일점,서울특별시 강북구 덕릉로 129 1층,37.6351616,127.0281346
274,강북구,번동제일점,서울특별시 강북구 덕릉로10길 18 (번동),37.6334534,127.0157381
275,강북구,삼양복지점,서울특별시 강북구 삼양로47길 23 (미아동),37.622773,127.0177608
276,강북구,수유2호점,서울특별시 강북구 삼양로 438 (수유동),37.6424902,127.0166696
277,강북구,수유도봉로점,"서울특별시 강북구 도봉로 388 1층 107호(번동, 테마빌딩)",37.6412816,127.0295891
278,강북구,수유래미안점,서울특별시 강북구 한천로159길 8 수유삼성아파트 상가 가동 112호,37.6446258,127.0184295
279,강북구,수유메인점,서울특별시 강북구 도봉로87길 3 덕원빌딩 (수유동),37.6125894,127.0286301
280,강북구,수유벽산점,서울특별시 강북구 삼각산로 140 진열빌딩 (수유동),37.64088539999999,127.0196968
281,강북구,수유본점,서울특별시 강북구 도봉로77길 25 (수유동),37.6335535,127.0217384
282,강북구,수유북부시장점,서울특별시 강북구 한천로144길 73 (수유동),37.64380999999999,127.0278486
283,강북구,수유빨래골점,서울특별시 강북구 삼양로73길 36 (수유동),37.6307018,127.0168589
284,강북구,수유사거리점,서울특별시 강북구 수유로 84 (수유동),37.6360593,127.0228193
285,강북구,수유어울림공원점,"서울시 강북구 한천로143길 16, 1층",37.6407187,127.0243695
286,강북구,수유영준점,서울특별시 강북구 한천로131길 13 (번동),37.6385451,127.0276034
287,강북구,수유으뜸점,서울특별시 강북구 도봉로 282 (미아동),37.6335367,127.0237327
288,강북구,수유장미원점,서울특별시 강북구 삼양로 474 (수유동),37.6454799,127.0157168
289,강북구,수유점,서울특별시 강북구 덕릉로 75 (수유동),37.6347859,127.0220395
290,강북구,수유제네스타워점,"서울특별시 강북구 덕릉로 82 (수유동, 제네스타워)",37.6349162,127.0252928
291,강북구,수유제일점,서울특별시 강북구 도봉로76길 11 (미아동),37.6329933,127.0243686
292,강북구,수유중앙점,서울특별시 강북구 오패산로 410 (번동),37.6373006,127.0267154
293,강북구,수유청수점,서울특별시 강북구 인수봉로55가길 1 (수유동),37.63663,127.0100042
294,강북구,수유화계사점,서울특별시 강북구 인수봉로47길 21 (수유동),37.633496,127.0122347
295,강북구,우이대로점,서울특별시 강북구 삼양로159길 2,37.6573712,127.0132864
296,강북구,우이유원지점,서울특별시 강북구 삼양로 685,37.6636721,127.0118984
297,강북구,화계사점,서울특별시 강북구 삼양로 346,37.6343674,127.0176468
298,강북구,M수유역2호점,서울특별시 강북구 도봉로 338 수유역 414-D2 (수유동),37.637504,127.025389
299,강서구,가양타워점,"서울특별시 강서구 화곡로68길 102 1층 104호(등촌동, 서울시니어스가양타워)",,
300,강서구,가양한림점,서울 강서구 가양동 192-9 한림타운 105호,37.5730939,126.8181515
301,강서구,강서공항대로점,서울특별시 강서구 공항대로59길 16  (등촌동),37.5523071,126.8639321
302,강서구,강서공항점,"서울특별시 강서구 송정로4길 1-1, 1층(공항동)",37.5584742,126.8109069
303,강서구,강서공항중앙점,서울특별시 강서구 공항동 1층 (송정로10),37.5437518,126.8108578
304,강서구,강서내발산길점,서울특별시 강서구 강서로45라길 35(내발산동),37.549376,126.8340776
305,강서구,강서등촌로얄점,서울특별시 강서구 공항대로41길 76 104호(등촌동),37.560928,126.8468189
306,강서구,강서등촌로점,서울특별시 강서구 등촌로51길 47  (등촌동),37.5492042,126.8605955
307,강서구,강서등촌점,서울특별시 강서구 공항대로41길 43(등촌동),37.5598738,126.8455245
308,강서구,강서마곡점,"서울특별시 강서구 마곡서1로 146 상가동 1층 103호(마곡동, 마곡엠밸리2단지)",37.5619185,126.826919
309,강서구,강서블루나인점,서울 강서구 양천로 583 A-106,37.556904,126.8642901
310,강서구,강서스토리점,서울 강서구 방화동 양천로 128 한림리첸빌 101(168-38),37.5730867,126.8183183
311,강서구,강서아이파크점,"서울특별시 강서구 화곡로 347그랜드아이파크 제1층 제118호(화곡동, 그랜드아이파크)",37.5546451,126.8511767
312,강서구,강서염창점,"서울특별시 강서구 양천로73가길 28 1층 2,3호",37.5504906,126.8738123
313,강서구,강서우림점,서울특별시 강서구 방화동 양천로28길 38,37.5714859,126.820699
314,강서구,강서중앙점,서울특별시 강서구 공항대로46길 35 (화곡동),37.5541199,126.8524705
315,강서구,강서하이웨이주유소점,서울특별시 강서구 공항대로 432 1층(화곡동),37.5545728,126.8548425
316,강서구,강서화곡대로점,서울특별시 강서구 강서로29길 27 102호(화곡동),37.5391374,126.8403654
317,강서구,강서화곡로점,"서울특별시 강서구 화곡로 296 (화곡동, 강서아이파크(I PARK))",37.5505337,126.8490319
318,강서구,강서화곡블루점,서울특별시 강서구 월정로 116,37.5295329,126.8387628
319,강서구,강서화곡삼화점,서울특별시 강서구 강서로15길 116 (화곡동),37.5320237,126.8395297
320,강서구,강서화곡신정점,서울특별시 강서구 등촌로13다길 32-18 1층(화곡동),37.5354915,126.8588252
321,강서구,강서화곡예스점,서울특별시 강서구 화곡로42길 35 (화곡동),37.545944,126.8474707
322,강서구,강서화곡점,"서울특별시 강서구 곰달래로 111 (화곡동, 1층)",37.5305851,126.8452678
323,강서구,강서화곡중앙점,서울특별시 강서구 화곡로 130 동원빌딩 1층,37.5401744,126.8362063
324,강서구,강서화곡진주점,서울특별시 강서구 곰달래로36길 17 (화곡동),37.5303008,126.8539138
325,강서구,강서화곡한솔점,서울특별시 강서구 까치산로17길 10,37.5481824,126.8492582
326,강서구,개화산역점,서울 강서구 방화동 534-9,37.5724605,126.807671
327,강서구,개화중앙점,서울특별시 강서구 개화동로9길 7 1층 101호(개화동),37.5790086,126.8003222
328,강서구,공항시장역점,서울특별시 강서구 방화동로 58-1 (방화동),37.5654823,126.8122511
329,강서구,공항시장점,서울 강서구 방화동 612-87,37.5645378,126.8099842
330,강서구,공항점,서울특별시 강서구 방화대로6나길 1(공항동),37.5549988,126.8168189
331,강서구,내발산점,서울특별시 강서구 강서로47라길 31 1층,37.55164449999999,126.8325869
332,강서구,등촌2호점,서울특별시 강서구 강서로56가길 53(등촌동),37.5618748,126.8401761
333,강서구,등촌5호점,서울특별시 강서구 강서로68길 12(등촌동),37.5661771,126.8415424
334,강서구,등촌능안길점,서울특별시 강서구 등촌로51가길 52  (등촌동),37.5466553,126.8619176
335,강서구,등촌능안점,서울특별시 강서구 등촌로39길 52 1층,37.546714,126.8601536
336,강서구,등촌두보점,서울특별시 강서구 공항대로58나길 40-44(등촌동),37.5509196,126.8576903
337,강서구,등촌샤르망점,"서울특별시 강서구 공항대로45길 101  (등촌동, 강변샤르망2차오피스텔)",37.5590647,126.8574788
338,강서구,등촌스타점,서울특별시 강서구 화곡로 404 1층(등촌동),37.5592018,126.8544276
339,강서구,등촌역점,서울특별시 강서구 등촌로 229-1  (등촌동),37.5502544,126.8634529
340,강서구,등촌현대점,서울특별시 강서구 공항대로61길 13,37.551647,126.8653794
341,강서구,등촌Awish점,"서울특별시 강서구 양천로 452 제1층 제106호(등촌동, 어위쉬예다인)",37.5628104,126.8508058
342,강서구,롯데스카이파크점,서울 강서구 방화동 886외 6필지 롯데몰스카이파크점 B1층,37.5636432,126.8038755
343,강서구,마곡15단지점,서울특별시 강서구 마곡중앙로 36 제상가동 1층(마곡엠밸리15단지),37.5619185,126.826919
344,강서구,마곡6단지점,"서울특별시 강서구 마곡서1로 100 601동 상가1층 107,108호(마곡동)",37.5619185,126.826919
345,강서구,마곡대방디엠점,서울특별시 강서구 마곡동 776 대방디엠시티오피스텔2차 상가 127호,37.5682963,126.8409671
346,강서구,마곡로뎀점,서울특별시 강서구 공항대로 186 1층 121호 로뎀타워(마곡동),37.5533338,126.8510294
347,강서구,마곡롯데연구소점,"서울특별시 강서구 마곡중앙로 201 1층(마곡동, 롯데중앙연구소)",37.5678801,126.8265667
348,강서구,마곡르보아점,"서울특별시 강서구 마곡중앙5로 87 121호(마곡동, 우성르보아2 오피스텔상가)",37.55319679999999,126.8298352
349,강서구,마곡마커스점,"서울특별시 강서구 마곡동로 55 102호(마곡동, 마커스빌딩)",37.5764888,126.8307466
350,강서구,마곡센트럴점,서울특별시 강서구 공항대로 227,37.5533338,126.8510294
351,강서구,마곡신사고점,서울특별시 강서구 강서로 463 1층 마곡동,37.5738215,126.8375275
352,강서구,마곡에스비점,"서울특별시 강서구 강서로 385 124호(마곡동, 우성에스비타워)",37.5535944,126.8412653
353,강서구,마곡호서대기숙사점,"서울특별시 강서구 강서로 399 1동 107호(마곡동, 마곡하이마루)",37.5535944,126.8412653
354,강서구,마곡홈앤쇼핑점,"서울특별시 강서구 공항대로 140 상가 1206동 103호 (마곡동, 마곡엠벨리12단지)",37.5533338,126.8510294
355,강서구,발산신화점,"서울특별시 강서구 강서로 360 1층 113,114호(내발산동, 솔레드림)",37.5576613,126.8384045
356,강서구,발산점,서울특별시 강서구 강서로47길 25(내발산동),37.5526176,126.8347786
357,강서구,발산제일점,서울 강서구 우장산로 31,37.5545093,126.8405822
358,강서구,발산W타워점,"서울특별시 강서구 공항대로 222 1층 109호(마곡동, 발산W타워)",37.5533338,126.8510294
359,강서구,방화삼익점,"서울특별시 강서구 방화대로47가길 22 방화4단지아파트105호,106호",37.576942,126.813456
360,강서구,방화새싹공원점,서울특별시 강서구 양천로14길 86 1층,37.5694104,126.8087226
361,강서구,방화역점,서울특별시 강서구 방화동 금낭화로135 금강프라자 1층 131호,37.577475,126.8125409
362,강서구,방화점,서울특별시 강서구 금낭화로 146,37.5781558,126.8132929
363,강서구,방화하늘점,서울특별시 강서구 금낭화로 61 (방화동),37.5707736,126.8114052
364,강서구,서울호서대점,서울 강서구 등촌동 강서로 418 (680-2 1층),37.5626145,126.8399891
365,강서구,송정로점,서울특별시 강서구 송정로 60 (공항동),37.5601045,126.810143
366,강서구,신방화역점,"서울특별시 강서구 방화대로 319 길성아파트 상가 8, 9호",37.5772805,126.8103467
367,강서구,염창삼성점,서울 강서구 양천로 658,37.5522268,126.8698341
368,강서구,염창점,"서울특별시 강서구 양천로 677 1층 101호(염창동, 염창빌딩)",37.5512843,126.8719047
369,강서구,염창중앙점,서울 강서구 양천로69길 11 (염창동),37.5530762,126.8703759
370,강서구,화곡3호점,서울특별시 강서구 화곡로20길 58 (화곡동),37.5377876,126.8366942
371,강서구,화곡5호점,서울특별시 강서구 강서로 17다길 2,37.5326209,126.8423592
372,강서구,화곡곰달래점,서울특별시 강서구 곰달래로50길 19 (화곡동),37.5307481,126.8582322
373,강서구,화곡까치산로점,서울특별시 강서구 까치산로 29 (화곡동),37.54239,126.8434744
374,강서구,화곡까치점,"서울특별시 강서구 까치산로2길 3 1층 101호(화곡동, 디아망2)",37.5409589,126.8424362
375,강서구,화곡등촌로점,서울특별시 강서구 등촌로 15 1층(화곡동),37.53126,126.8634719
376,강서구,화곡로점,서울특별시 강서구 화곡로60길 33 (화곡동),37.553373,126.853118
377,강서구,화곡메인점,"서울특별시 강서구 곰달래로49길 112, 1층(화곡동)",37.53601,126.8550597
378,강서구,화곡본동점,"서울특별시 강서구 초록마을로14길 37(화곡동, 호산나빌)",37.5408684,126.8484767
379,강서구,화곡스타점,서울특별시 강서구 화곡로31길 85,37.5442323,126.838674
380,강서구,화곡신정초교점,서울특별시 강서구 곰달래로31다길 1층 (화곡동),37.533578,126.8515215
381,강서구,화곡원룸점,서울특별시 강서구 강서로7길 59  101호 (화곡동),37.5291983,126.8444305
382,강서구,화곡월정점,서울특별시 강서구 월정로30길 102 1층,37.535566,126.8413169
383,강서구,화곡자하클래식점,"서울특별시 강서구 화곡로 262 1층 101호(화곡동, 자하클래식)",37.56103239999999,126.9226733
384,강서구,화곡제일점,서울특별시 강서구 초록마을로 3 1층(화곡동),37.5450304,126.8450778
385,강서구,화곡중앙점,서울특별시 강서구 강서로31길 10 1층(화곡동),37.5402846,126.8405694
386,강서구,화곡푸르지오점,"서울특별시 강서구 화곡로13길 107,1층 103-1 ,102-2호(화곡동,화곡푸르지오 제상가씨동)",,
387,강서구,화곡푸른점,"서울특별시 강서구 강서로45다길 69 1층 101호(화곡동, 한길빌딩)",37.5448299,126.835125
388,강서구,화곡하늘점,서울특별시 강서구 까치산로18라길 6 1층(화곡동),37.5469,126.851634
389,강서구,화곡현대점,서울특별시 강서구 초록마을로30길 7,37.5372205,126.8487987
390,강서구,화곡화원점,서울특별시 강서구 가로공원로76가길 76 1층(화곡동),37.5342859,126.8429003
391,강서구,S개화산역점,서울 강서구 방화동 531-16 B1X27,37.5723457,126.806208
392,강서구,S김포공항역점,서울 강서구 방화동 744B2.X27-29,37.5625871,126.800821
393,강서구,S까치산역점,서울특별시 강서구 강서로 1길 3 (화곡동 세븐일레븐),37.5520232,126.8359897
394,강서구,S발산역점,서울특별시 강서구 공항대로 지하267  (가양동),37.5533338,126.8510294
395,강서구,S방화역점,서울특별시 강서구 금낭화로 지하132 5호선 방화역 B1 X26-27,37.5773915,126.8127355
396,강서구,S송정역점,서울특별시 강서구 공항대로 지하33  (공항동),37.5533338,126.8510294
397,강서구,S우장산역점,서울특별시 강서구 강서로 지하262  (화곡동),37.5535944,126.8412653
398,강서구,S화곡역점,서울특별시 강서구 화곡로 148 (화곡동 세븐일레븐),37.54071220000001,126.838328
399,관악구,관악공원점,서울특별시 관악구 관악로12길 77,37.4773971,126.9566717
400,관악구,관악구청점,서울특별시 관악구 관악로 154 1층(봉천동),37.4788977,126.9526427
401,관악구,관악국화점,서울특별시 관악구 난곡로31길 30 1층,37.4706742,126.9184683
402,관악구,관악금강점,서울특별시 관악구 신림동 조원중앙로 8,37.4804842,126.9047162
403,관악구,관악꿈보람점,"서울특별시 관악구 봉천로 12길 69 신림동, 1층",37.485695,126.9302974
404,관악구,관악낙성점,서울특별시 관악구 봉천동 남부순환로 237길 3(봉천동),37.4788165,126.9599681
405,관악구,관악난향점,서울특별시 관악구 난향길 70,37.4629046,126.9155418
406,관악구,관악남현길점,서울특별시 관악구 남현길 58 (남현동),37.4742647,126.9759991
407,관악구,관악남현점,서울특별시 관악구 남부순환로262길 11,37.4756452,126.9750713
408,관악구,관악대학점,서울특별시 관악구 호암로24길 56 1층(신림동),37.4692607,126.9361614
409,관악구,관악대학촌점,서울특별시 관악구 서림3길 70,37.4714353,126.9413298
410,관악구,관악동산점,서울특별시 관악구 솔밭로 11-1,37.4786275,126.9628662
411,관악구,관악드림점,서울특별시 관악구 봉천동 480-3 106호107호,37.4890187,126.9483289
412,관악구,관악무지개점,서울특별시 관악구 관악로10길 36,37.4766163,126.954678
413,관악구,관악미림점,서울특별시 관악구 호암로20길 67 (신림동),37.4670617,126.9357223
414,관악구,관악미성점,서울 관악구 신림동 1474-24,37.481183,126.9143393
415,관악구,관악법원단지점,서울특별시 관악구 법원단지17길 2 지하층 제비03호(신림동),37.4746413,126.922099
416,관악구,관악봉천점,서울특별시 관악구 남부순환로206길 34,37.480817,126.9417323
417,관악구,관악삼성점,서울특별시 관악구 호암로 401 101호,37.4610399,126.9259487
418,관악구,관악색동점,서울특별시 관악구 신림로70길 7,37.4877404,126.9292053
419,관악구,관악서원점,서울특별시 관악구 신림로46길 24,37.4787779,126.9346098
420,관악구,관악신사점,서울 관악구 신림동 난곡로 318,37.4823754,126.9146668
421,관악구,관악신원점,서울특별시 관악구 남부순환로168가길 47 1층,37.4805687,126.9268881
422,관악구,관악쑥고개점,서울특별시 관악구 쑥고개로 99(봉천동),37.4792691,126.9476944
423,관악구,관악웰피아점,서울특별시 관악구 봉천로4길 48 1층,37.4876195,126.9242238
424,관악구,관악으뜸점,서울특별시 관악구 호암로22길 56 1층 전부(신림동),37.4685302,126.9357897
425,관악구,관악은천점,서울특별시 관악구 은천로 48 (봉천동),37.4859347,126.9404966
426,관악구,관악점,서울특별시 관악구 관악로 192 1층(봉천동),37.48214919999999,126.9536183
427,관악구,관악조원점,서울특별시 관악구 조원로 92,37.4843929,126.9125198
428,관악구,관악중앙점,서울특별시 관악구 관악로 227 (봉천동),37.48489259999999,126.955214
429,관악구,관악중학교점,서울특별시 관악구 행운6길 22 1층(봉천동),37.4806187,126.9609109
430,관악구,관악청룡로점,"서울특별시 관악구 청룡길 45 101호(봉천동, 참소망타운)",37.4797152,126.9460782
431,관악구,관악청룡점,"서울특별시 관악구 청룡1길 19 봉천동, 1층",37.4811924,126.9474402
432,관악구,관악청솔점,서울특별시 관악구 조원로 118 1층,37.4849818,126.9155144
433,관악구,관악타워점,"서울특별시 관악구 남부순환로 1802 상가 101호, 102호(봉천동, 관악캠퍼스타워)",37.481105,126.950276
434,관악구,관악현대점,서울특별시 관악구 청림3마길 27 1층,37.490741,126.957324
435,관악구,관악호암로점,서울특별시 관악구 호암로22길 21 (신림동),37.4689857,126.9339496
436,관악구,낙성대역길점,서울특별시 관악구 낙성대역길 111 지하1층,37.4740612,126.9648388
437,관악구,낙성대점,서울특별시 관악구 남부순환로 1951 코너(봉천동),37.476348,126.9660656
438,관악구,남강입구점,서울 관악구 신림동 620-2,37.4723786,126.9195057
439,관악구,남현르메이에르점,서울특별시 관악구 과천대로 939  (남현동),37.4743654,126.9813928
440,관악구,남현이즈빌점,"서울특별시 관악구 남현1길 9, 1층 102호 (남현동, 현대이즈빌아파트)",37.4759477,126.9779547
441,관악구,대학삼성점,서울특별시 관악구 대학7길 51 1층,37.4686529,126.9405257
442,관악구,미성푸르지오점,서울특별시 관악구 남부순환로 1430,37.4791136,126.9104549
443,관악구,보라매샤르망점,서울 관악구 봉천동 972-5 보라매 샤르망 105,37.4899877,126.9270878
444,관악구,봉일시장점,서울특별시 관악구 봉천로23나길 45,37.4869526,126.9378555
445,관악구,봉천1호점,서울특별시 관악구 남부순환로 1766 (봉천동),37.4816696,126.9460869
446,관악구,봉천2호점,서울특별시 관악구 남부순환로 1913  (봉천동),37.477909,126.9620089
447,관악구,봉천3호점,서울특별시 관악구 남부순환로233길 11(봉천동),37.479936,126.9578744
448,관악구,봉천4호점,서울특별시 관악구 남부순환로246길 30  (봉천동),37.4752725,126.9640544
449,관악구,봉천5호점,서울특별시 관악구 남부순환로 1702 봉천동,37.48313479999999,126.9391521
450,관악구,봉천제일점,서울특별시 관악구 봉천동 남부순환로 1932(봉천동),37.4767935,126.9635496
451,관악구,봉천진용점,"서울특별시 관악구 봉천로 443, 1층(봉천동)",37.4827181,126.9493862
452,관악구,봉천태영점,서울특별시 관악구 보라매로 4 (봉천동),37.4898962,126.9279646
453,관악구,봉천해주점,서울특별시 관악구 봉천로 466 (봉천동),37.4819856,126.951625
454,관악구,사당역점 B,서울특별시 관악구 남현1길 66  (남현동),37.475674,126.9811059
455,관악구,서울대동아점,서울특별시 관악구 관악로 167(봉천동),37.48027620000001,126.9522232
456,관악구,서울대샤로수점,서울특별시 관악구 관악로14길 34,37.4788101,126.9543478
457,관악구,서울대서진점,서울특별시 관악구 관악로 17길 3(봉천동),37.480606,126.9515086
458,관악구,서울대연구공원점,"서울특별시 관악구 관악로 1, 지하1층 (봉천동, 서울대연구공원단지 내)",37.459882,126.9519053
459,관악구,서울대입구역점,"서울특별시 관악구 남부순환로 1820 봉천동, 1층",37.4809094,126.9520957
460,관악구,서울대입구역중앙점,서울특별시 관악구 봉천로 471,37.4823915,126.9523859
461,관악구,서울대제일점,서울특별시 관악구 남부순환로 1830,37.4807862,126.9531399
462,관악구,서울대한울점,서울특별시 관악구 관악로15길 23-16 1층,37.4795563,126.9507002
463,관악구,신대방스타점 B,서울 관악구 신림동 518-1,37.4866545,126.9133114
464,관악구,신대방행복점,서울특별시 관악구 신사로 116-1 한양빌딩 1층,37.4878766,126.9151723
465,관악구,신림2호점,서울 관악구 신림동 406-37,37.4749615,126.934949
466,관악구,신림가야점,서울 관악구 신림동 신림로66길 47  101,37.4858324,126.9323296
467,관악구,신림고시촌점,서울특별시 관악구 신림로23길 34 (신림동),37.4694982,126.9346263
468,관악구,신림녹두점,서울특별시 관악구 신림로 97 가동,37.4702615,126.9386411
469,관악구,신림대학스타점,서울특별시 관악구 호암로24길 6 (신림동),37.4698695,126.9335323
470,관악구,신림라이프점,서울 관악구 신림동 746-1 외 3필지 1층상가,37.4762669,126.912284
471,관악구,신림문화점,서울특별시 관악구 신림동길 15 1층,37.4870729,126.9270325
472,관악구,신림법학원점,서울특별시 관악구 신림로 77,37.4703422,126.9407122
473,관악구,신림스타점,서울특별시 관악구 신림로 322 1층(신림동),37.482939,126.930123
474,관악구,신림점,서울 관악구 신림동 487-4,37.4833028,126.9214266
475,관악구,신림지영점,서울특별시 관악구 관천로 91 트윈타워 1층,37.4865588,126.9226232
476,관악구,신림패션점,서울특별시 관악구 신림로 373 1층(신림동),37.4873675,126.9285254
477,관악구,신림한양점,서울특별시 관악구 관천로 137 (신림동),37.4890376,126.9196691
478,관악구,신림허브그린점,서울특별시 관악구 신림로 344 신림동,37.4851082,126.9299666
479,관악구,신사시장점,서울특별시 관악구 남부순환로153길 35 (신림동),37.4840205,126.9163085
480,관악구,우림난우점,서울특별시 관악구 난곡로24길 1 1층(신림동),37.469969,126.9202793
481,관악구,은천로점,서울특별시 관악구 은천로 79-1,37.4868565,126.9441189
482,관악구,은천점,"서울특별시 관악구 봉천로 335 1층(봉천동 950-25, 950-26)",37.4852785,126.9378633
483,관악구,M낙성대역점,서울 관악구 봉천동 1693-38 227-D1,37.4794079,126.9575505
484,광진구,강변테크노마트점,서울 광진구 구의동 광나루로56길  85 지하004호,37.5349372,127.0957088
485,광진구,강변프라임점,서울 광진구 구의동 631-1 프라임프라자상가제1층제114호,37.5367628,127.0961255
486,광진구,건국대점,서울 광진구 화양동 495-15번지,37.54576050000001,127.0764815
487,광진구,건대맛거리점,서울특별시 광진구 화양동 아차산로33길 40 1층,37.5418909,127.0706812
488,광진구,건대번영로점,서울특별시 광진구 자양동 아차산로 305 (226-38) 1층,37.5383923,127.0767908
489,광진구,건대스타시티2호점,서울 광진구 자양동 아차산로 262 (스타시티쇼핑몰 1층 26호),37.5377622,127.0726
490,광진구,건대스타시티점,서울 광진구 자양동 227-7,37.5376127,127.0726183
491,광진구,건대예술점,서울 광진구 화양동 3-21,37.5435552,127.0720547
492,광진구,건대입구역점,서울특별시 광진구 아차산로 219 지상1층 일부(화양동),37.5410879,127.0679154
493,광진구,건대제일점,서울 광진구 화양동 47-67,37.5416614,127.0676231
494,광진구,건대화양점,서울 광진구 화양동 8-99번지,37.5410882,127.0693174
495,광진구,광장점,서울 광진구 광장동 187-13,37.5481459,127.1092483
496,광진구,광장현대점,서울특별시 광진구 아차산로66길 66,37.5416665,127.1001108
497,광진구,광진능동점,서울특별시 광진구 능동로24길 74 지상1층(능동),37.5529892,127.0804723
498,광진구,광진자양로점,서울특별시 광진구 자양로13길 36 지상1층 (자양동),37.5348145,127.0822547
499,광진구,광진자양점,서울 광진구 자양동 609-6 1층,37.5330634,127.0765374
500,광진구,구의2호점,서울 광진구 구의동 596-5,37.5341635,127.0914016
501,광진구,구의3호점,서울 광진구 구의동 246-8,37.5376217,127.0850955
502,광진구,구의그랜드점,서울특별시 광진구 구의로 25 1층(구의동),37.540226,127.0894473
503,광진구,구의본점,서울 광진구 구의동 79-8 고광빌딩1층,37.548625,127.0889
504,광진구,구의스타점,서울특별시 광진구 구의로 10 1층(구의동),37.53873189999999,127.0894282
505,광진구,구의아차산점,서울특별시 광진구 자양로 281 누리빌딩 1층,37.5486055,127.0888282
506,광진구,구의자양로점,서울 광진구 구의동 254-54  1층,37.541564,127.0836125
507,광진구,구의파크점,서울특별시 광진구 아차산로 455 1층(구의동),37.5394862,127.0927175
508,광진구,구의하늘점,"서울특별시 광진구 자양로38길 25 1층 1호, 2호",37.5468155,127.0893513
509,광진구,구의현대점,서울 광진구 구의동 591-21 1층,37.5359354,127.09076
510,광진구,구의희망점,서울 광진구 구의동 212-3 CSPLAZA빌딩1층,37.5404202,127.0939554
511,광진구,군자본점,서울특별시 광진구 군자동 동일로56길 61,37.5555739,127.0735771
512,광진구,군자역점,"서울특별시 광진구 천호대로 533 1층 (중곡동, 동진빌딩)",37.5581108,127.0778243
513,광진구,군자원룸점,서울특별시 광진구 군자동 능동로25길 15  1층,37.5528329,127.0761475
514,광진구,군자하나점,서울특별시 광진구 군자동 능동로31길 22 1층,37.5559691,127.0773764
515,광진구,노유로데오점,서울특별시 광진구 동일로20길 114,37.5394881,127.0695761
516,광진구,노유점,서울 광진구 노유동 236-26,37.5375623,127.0745855
517,광진구,능동시티점,서울특별시 광진구 능동로36길 22 1층,37.555878,127.0802534
518,광진구,뚝섬아리랑점,서울특별시 광진구 자양동 427,37.5281523,127.0683502
519,광진구,뚝섬유원지점,서울 광진구 자양동 74-24 1층일부,37.53285030000001,127.0660628
520,광진구,선화예고점,서울 광진구 능동 25 선화예술중.고등학교매점,37.5502546,127.0875655
521,광진구,세종대기숙사점,"서울특별시 광진구 군자로 121 지하1층(군자동,세종대학교행복기숙사)",37.5517986,127.0736331
522,광진구,스타시티영존점,서울 광진구 화양동 4-20 21스타시티영존 101,37.54073410000001,127.0714334
523,광진구,어린이대공원역점,서울특별시 광진구 광나루로 410 KCC파크타운 108호,37.5466501,127.075044
524,광진구,용마초교점,서울특별시 광진구 천호대로117길 54 (중곡동),37.5573395,127.0853513
525,광진구,워커힐점,서울 광진구 광장동 아차산로 630,37.5510185,127.1105699
526,광진구,자양3호점,서울 광진구 자양동 635 1층,37.5324044,127.0799681
527,광진구,자양강변점,서울특별시 광진구 자양동 뚝섬로54길 46 1층,37.5296426,127.0799523
528,광진구,자양금모래점,"서울특별시 광진구 뚝섬로56길 22 제1층 제101호(자양동, 드림팰리스6차)",37.530368,127.0823951
529,광진구,자양삼희점,"서울특별시 광진구 뚝섬로 552 삼희빌딩 107호, 108호 (자양동)",37.5342626,127.0712947
530,광진구,자양성자점,서울특별시 광진구 뚝섬로 669,37.5318691,127.0837809
531,광진구,자양유진점,서울특별시 광진구 뚝섬로27길 43,37.537816,127.0660665
532,광진구,자양으뜸2호점,서울 광진구 자양동 627-2번지,37.5356144,127.0836095
533,광진구,자양점,서울 광진구 자양3동 580-9,37.5336206,127.0750845
534,광진구,자양한강점,서울특별시 광진구 자양번영로 20 1층(자양동),37.5313556,127.0753546
535,광진구,자양한양점,서울특별시 광진구 뚝섬로50길 16,37.5317079,127.0779956
536,광진구,자양행복점,서울 광진구 자양동 자양로3길 26,37.5304058,127.0848227
537,광진구,중곡2호점,서울 광진구 중곡동 18-73,37.5640078,127.0870571
538,광진구,중곡대원여고점,서울 광진구 중곡2동 150-108,37.5618819,127.0870106
539,광진구,중곡동일점,서울특별시 광진구 중곡동 긴고랑로 6,37.5638394,127.0769873
540,광진구,중곡사거리점,서울특별시 광진구 용마산로 67 중곡동,37.5597344,127.0873288
541,광진구,중곡중앙점,서울특별시 광진구 면목로 192 1층 일부(중곡동),37.5701568,127.0833709
542,광진구,중곡타운점,서울특별시 광진구 용마산로3길 104 1층(중곡동),37.5574149,127.0826487
543,광진구,화양가중공원길점,서울 광진구 화양동 16-16,37.5456162,127.0704901
544,광진구,화양공원점,서울 광진구 화양동 광나루로14길 27,37.5469099,127.0685242
545,광진구,화양리점,서울 광진구 화양동 17-1,37.5473634,127.0701685
546,광진구,화양본점,서울특별시 광진구 아차산로25길 45,37.5433144,127.0673434
547,광진구,화양사거리점,서울 광진구 화양동 23-40,37.5468534,127.0670718
548,광진구,화양스타점,서울특별시 광진구 능동로13길 59,37.544256,127.0694048
549,광진구,화양점,서울 광진구 화양동 112-3,37.5468897,127.0731733
550,광진구,M2강변역점,"서울특별시 광진구 강변역로 53 214-04호 (구의동, 강변역)",37.535144,127.094672
551,광진구,S광나루역점,서울 광진구 광장동 48-22 B2 X21-23,37.5531756,127.1084245
552,광진구,S아차산역점,서울 광진구 능동 256 B2 X23-24,37.5525387,127.0889592
553,구로구,가리봉2호점,서울특별시 구로구 남부순환로105길 14 가리봉동,37.4853208,126.8837032
554,구로구,가리봉중앙점,서울특별시 구로구 구로동로 16,37.4831309,126.887109
555,구로구,개봉개웅점,서울특별시 구로구 개봉동 개봉로3가길 23,37.4851188,126.854143
556,구로구,개봉점,서울 구로구 개봉로 67 개봉동,37.4916972,126.8556189
557,구로구,개봉중앙점,"서울특별시 구로구 경인로35길 62, 1층(개봉동)",37.4993815,126.8532341
558,구로구,개봉푸르지오점,"서울특별시 구로구 남부순환로 775,105호 106호(개봉동,개봉푸르지오상가)",,
559,구로구,개봉학마을점,서울시 구로구 고척로 27길 126 (개봉동),37.50747459999999,126.8451851
560,구로구,개봉한진점,"서울특별시 구로구 개봉로3길 87, 상가1동 2층 205,206호(개봉한진아파트)",37.4846909,126.8519255
561,구로구,고척공원점,"서울특별시 구로구 고척로 153, 1층 (고척동)",37.5032833,126.8507575
562,구로구,고척점,서울특별시 구로구 경인로47길 45 (고척동),37.5010414,126.8655632
563,구로구,고척중앙점,"서울특별시 구로구 경인로47길 126-5, 1층(고척동)",37.5046095,126.8633185
564,구로구,고척청마루점,서울특별시 구로구 구로중앙로14길 31 1층,37.5075827,126.8631037
565,구로구,고척푸르지오점,"서울특별시 구로구 중앙로 109 (고척동, 고척파크푸리지오)",37.5070541,126.8594992
566,구로구,고척현화점,서울특별시 구로구 고척로60길 12 (고척동),37.5057264,126.8592638
567,구로구,구로개봉점,서울 구로구 개봉동 19길 21-7 개봉동,37.49292519999999,126.8554192
568,구로구,구로개봉푸르뫼점,서울특별시 구로구 고척로 101 102호,37.5012146,126.8452238
569,구로구,구로고척본점,"서울특별시 구로구 중앙로 85 102호(고척동, 라이프플러스)",37.5051445,126.8605835
570,구로구,구로공단점,서울특별시 구로구 구로동 1125-1,37.4839324,126.9017973
571,구로구,구로구청점,서울특별시 구로구 가마산로 265 구로동,37.4961047,126.8896611
572,구로구,구로궁동점,서울특별시 구로구 부일로9길 92,37.4966151,126.8242399
573,구로구,구로대명밸리온점,"서울특별시 구로구 경인로53가길 10 106호(구로동, 구로대명밸리온 지식산업센터)",37.5027283,126.8743395
574,구로구,구로드림타워점,"서울특별시 구로구 디지털로33길 55 103호 (구로동, 이앤씨벤처드림타워2차)",37.487013,126.8931959
575,구로구,구로디지털탑점,서울특별시 구로구 디지털로26길 98 디지털탑상가 102호(구로동),37.4814128,126.8960861
576,구로구,구로리공원점,서울 구로구 구로중앙로 7 구로동,37.4909859,126.8907183
577,구로구,구로마리오타워점,서울특별시 구로구 디지털로30길 28 마리오타워 1층 110호,37.4820569,126.895277
578,구로구,구로명성점,"서울특별시 구로구 경인로11길 2-4 1층 105호(오류동, 명성드림주상복합빌딩)",37.4941556,126.8388562
579,구로구,구로베르누이호텔점,"서울특별시 구로구 경인로 229 (오류동, 베니키아베르누이관광호텔)",37.4972241,126.845983
580,구로구,구로본점,서울특별시 구로구 구로2동 구로동로25길 7,37.4903987,126.8834776
581,구로구,구로영림점,서울특별시 구로구 가마산로27길7 구로동,37.4972842,126.8915877
582,구로구,구로우리아이들병원점,서울특별시 구로구 새말로 15 1층 101호(구로동),37.5077759,126.8921632
583,구로구,구로이스페이스점,서울특별시 구로구 구로동 디지털로27길 36 1층-109-3 이스페이스,37.4837814,126.892564
584,구로구,구로점,"서울특별시 구로구 디지털로31길120 구로동, 한신휴플러스A 상가동 409호,410호",37.4883667,126.8900584
585,구로구,구로주공점,서울특별시 구로구 구일로4길 66 구로동,37.49364190000001,126.8762983
586,구로구,구로초원점,"서울특별시 구로구 구로중앙로14길 10 (구로동,1층일부)",37.4930357,126.8913802
587,구로구,구로큰길점,서울특별시 구로구 구로중앙로 82 구로동,37.4965718,126.8879749
588,구로구,구로항동점,서울특별시 구로구 항동 135-56 항동하버라인10단지 B103호,37.479734,126.825668
589,구로구,구로현대파크빌점,"서울특별시 구로구 공원로 41 113호, 114호(구로동, 현대파크빌)",37.5003438,126.8899252
590,구로구,구로희망점,서울특별시 구로구 구로중앙로28길 10 (구로동),37.4987394,126.8866048
591,구로구,구일역점,서울특별시 구로구 구일로 110 1층 101호(구로동),37.4950273,126.872004
592,구로구,궁동청림점,"서울특별시 구로구 부일로17길 89 제1층 제101호(궁동,다청림(일원정))",37.4957657,126.831173
593,구로구,남구로시장점,서울특별시 구로구 구로동로28길 60 1층(구로동),37.4907611,126.887508
594,구로구,남구로하늘점,서울특별시 구로구 도림로 32 2층,37.4868879,126.8882179
595,구로구,남구로행운점,서울특별시 구로구 구로동 798-9 102호,37.4851564,126.8881543
596,구로구,동양공대점,서울 구로구 고척동 76-137,37.4999904,126.8667508
597,구로구,신도림미래사랑점,서울특별시 구로구 경인로 661 신도림1차 푸르지오아파트,37.5094291,126.8876466
598,구로구,신도림미림점,서울특별시 구로구 신도림로 20 1층 105호(신도림동),37.5065597,126.8787185
599,구로구,신도림점,서울특별시 구로구 신도림로 11길 38 신도림동,37.50925489999999,126.8787404
600,구로구,신도림코리아점,서울특별시 구로구 경인로 610 코리아빌딩 1층 102-1호,37.50500299999999,126.883794
601,구로구,신도림태영점,"서울특별시 구로구 새말로 89 101,102호(구로동)",37.5055816,126.889833
602,구로구,오류대로점,서울특별시 구로구 경인로 170,37.4942546,126.840396
603,구로구,오류동선점,서울시 구로구 오리로 86 (오류동),37.4943867,126.8325917
604,구로구,오류삼거리점,서울특별시 구로구 고척로 2 1층(오류동),37.49512319999999,126.8411357
605,구로구,오류역점,서울시 구로구 경인로 20길 9(오류동),37.4954229,126.843948
606,구로구,오류점,"서울특별시 구로구 고척로 52 (오류동, 한신플러스타운)",37.5037169,126.854552
607,구로구,천왕역점,"서울특별시 구로구 오류로 20 1층 106호(오류동, 새롬스타빌)",37.4892823,126.8402648
608,구로구,M대림역2호점,서울특별시 구로구 도림천로 352 구로동,37.493394,126.8942303
609,구로구,M신도림역점,서울특별시 구로구 새말로 117-21 신도림동,37.5086867,126.8909033
610,금천구,가산광진점,서울특별시 금천구 가산로5길 14 102호,37.4736556,126.8939287
611,금천구,가산대륭21차점,"서울특별시 금천구 범안로 1126, 1층 104호 (가산동, 대륭21차)",37.4652489,126.887122
612,금천구,가산디지털역점,서울특별시 금천구 가산동 벚꽃로38길 5 초양빌딩 105,37.4818785,126.8832991
613,금천구,가산로점,서울특별시 금천구 가산로7길 53 1층(가산동),37.4742891,126.8905673
614,금천구,가산롯데IT캐슬점,서울특별시 금천구 가산디지털2로 98 IT캐슬 1동 106호,37.4764885,126.8813426
615,금천구,가산마리오아울렛1관점,서울 금천구 가산동 디지털로 185  1층,37.4779193,126.8872055
616,금천구,가산마리오아울렛3관점,서울 금천구 가산동 벚꽃로266 마리오아울렛3관1층,37.4785992,126.8851547
617,금천구,가산우림점,"서울특별시 금천구 가산디지털1로 168 ,A동 2층 201호(가산동,우림라이온스밸리)",37.4798346,126.8824997
618,금천구,가산월드점,서울특별시 금천구 벚꽃로 254 103호 가산동,37.4777579,126.8854724
619,금천구,가산푸르지오시티점,"서울특별시 금천구 벚꽃로56길 182 101호(가산동,램킨푸르지오시티)",37.4796942,126.8883381
620,금천구,가산후지필름점,서울특별시 금천구 가산디지털1로 222 1층 근생3호(가산동),37.4849435,126.8800265
621,금천구,가산STXV타워점,서울특별시 금천구 가산디지털1로 128,37.4771592,126.8837142
622,금천구,구로전화국사거리점,서울특별시 금천구 남부순환로 1364 외2필지보성빌딩1,37.4842384,126.9278379
623,금천구,금천가산점,서울특별시 금천구 가산로 147-7 가산동,37.4780024,126.8903915
624,금천구,금천독산점,서울특별시 금천구 시흥대로 427 독산동,37.4716056,126.8977699
625,금천구,금천리온점,서울특별시 금천구 두산로14길 18 (독산동),37.4691388,126.8948047
626,금천구,금천문성점,서울특별시 금천구 문성로 49-9,37.47726370000001,126.908787
627,금천구,금천벚꽃점,"서울특별시 금천구 벚꽃로18길 36 상가동 104호,105호",37.4678646,126.8908556
628,금천구,금천벽산1단지점,서울특별시 금천구 시흥동 92-2 벽산아파트 A동 3호,37.4520061,126.918124
629,금천구,금천부자점 B,서울특별시 금천구 독산로 172 시흥동,37.4625651,126.9043288
630,금천구,금천부창점,서울특별시 금천구 독산동 1027-18 1층,37.4665822,126.8995077
631,금천구,금천우림점,"서울특별시 금천구 시흥대로 63 길 17 (시흥동,우림메르디앙102호,103호)",37.454878,126.8986699
632,금천구,금천우체국점,서울특별시 금천구 시흥대로128길 10,37.4701715,126.8987734
633,금천구,금천은행나무로점,서울특별시 금천구 은행나무로 6 (시흥동),37.4498637,126.9034257
634,금천구,금천은행나무점,서울특별시 금천구 금하로24길 7 시흥동,37.450622,126.9087356
635,금천구,금천필승점,서울특별시 금천구 시흥대로63길 50 (시흥동),37.4554536,126.8969208
636,금천구,금천하이츠점,서울특별시 금천구 시흥대로28길 35-27 (시흥동),37.4436296,126.9058786
637,금천구,금천한우물점,서울특별시 금천구 시흥대로 149 길 30 다온캐슬 101동 101호,37.4755797,126.8960605
638,금천구,금천한울중학교점,서울특별시 금천구 시흥동 794 2층,37.4623776,126.9078199
639,금천구,금천힐스테이트점,서울특별시 금천구 시흥대로 165 남서울힐스테이트아파트제314동 1층 101호,37.4469174,126.9030449
640,금천구,독산2호점,"서울특별시 금천구 시흥대로 409, 107호, 108호(독산동, 송산빌딩)",37.4701426,126.8976083
641,금천구,독산문성점,서울특별시 금천구 시흥대로148길 27 (독산동),37.4750865,126.9003066
642,금천구,독산솔리브점,서울특별시 금천구 두산로 28 제1층 101호(독산동),37.4699733,126.8908832
643,금천구,독산역본점,서울특별시 금천구 벚꽃로 114 1동 101호,37.4653512,126.8902337
644,금천구,독산점,서울특별시 금천구 시흥대로116길 2 독산동,37.468028,126.8988772
645,금천구,독산중앙점,서울특별시 금천구 시흥대로122길 23 (독산동),37.46937990000001,126.8995933
646,금천구,독산희망점,서울특별시 금천구 독산로70길 23 독산동,37.4666737,126.903048
647,금천구,동작옴니타워점,서울특별시 금천구 벚꽃로 278 SJ테크노빌,37.4795716,126.8845367
648,금천구,시흥월드점,서울특별시 금천구 독산로36길 45,37.4600105,126.9075264
649,금천구,시흥초교점,서울특별시 금천구 독산로 86-1 시흥동,37.4550828,126.9060757
650,금천구,시흥IC점,서울특별시 금천구 독산동 시흥대로 487,37.4770616,126.8982777
651,금천구,파트너스타워점,서울특별시 금천구 가산디지털1로 83 103호,37.473191,126.8842831
652,금천구,LDCC점,서울특별시 금천구 가산디지털2로 179 롯데센타 1층,37.483682,126.876454
653,노원구,공릉금강점,서울특별시 노원구 공릉동 공릉로38길 17,37.6232617,127.0804117
654,노원구,공릉동명점,서울특별시 노원구 동일로 191가길 51  (공릉동),37.6272001,127.0706329
655,노원구,공릉두산힐스빌점,서울특별시 노원구 공릉동 271,37.6204792,127.0805173
656,노원구,공릉문화점,서울특별시 노원구 동일로179길 23 1층,37.6217432,127.0727829
657,노원구,공릉시장점,서울특별시 노원구 동일로 1040 서창빌딩,37.622894,127.0741835
658,노원구,공릉역점,서울특별시 노원구 동일로 1078 대경상운 1층,37.626035,127.0733753
659,노원구,공릉원룸점,서울특별시 노원구 동일로190길 47 1층,37.626087,127.0756358
660,노원구,공릉점,서울특별시 노원구 공릉로 101 101 (공릉동),37.6192382,127.0778185
661,노원구,공릉제일점,서울특별시 노원구 공릉동 동일로 1104,37.6284576,127.0718555
662,노원구,공릉하나점,"서울특별시 노원구 공릉로 119-27, 1층 (공릉동)",37.6208436,127.0782507
663,노원구,과기대점,"서울특별시 노원구 공릉로 211 제102동 제1층 제101호(공릉동, 동신아파트)",37.628077,127.0768608
664,노원구,광운대원룸점,서울특별시 노원구 광운로2가길 23 라동 101호,37.6181282,127.0592258
665,노원구,광운대점,서울 노원구 월계동 406 준빌딩 1층 3호,37.6213074,127.05946
666,노원구,광운대후문점,"서울특별시 노원구 석계로13길 48,1층 (월계동)",37.6212056,127.0610833
667,노원구,노원공릉그린점,서울특별시 노원구 공릉로 41길 21 (공릉동),37.6245431,127.0783443
668,노원구,노원롯데점,서울특별시 노원구 노해로 485 금정빌딩 (상계동),37.6548486,127.0619133
669,노원구,노원문고점,"서울특별시 노원구 동일로 1384 상가 109호(상계동, 상계주공6단지아파트)",37.6302524,127.0694461
670,노원구,노원상계현대점,서울특별시 노원구 상계로3길 50 현대아파트상가 101호 (상계동),37.6584973,127.0629309
671,노원구,노원순복음점,서울특별시 노원구 상계로10길 23 (상계동),37.6564387,127.0679169
672,노원구,노원역점,"서울특별시 노원구 동일로217가길 11 102,103호",37.6534006,127.0598701
673,노원구,노원점,서울특별시 노원구 노해로 488 근호빌딩 1층 3호 (상계동),37.6543034,127.062181
674,노원구,노원제일점,"서울특별시 노원구 동일로 1417 1층 104,105호(상계동, 삼양빌딩)",37.6549923,127.0599384
675,노원구,노원중앙점,서울특별시 노원구 노해로85길 10-2 1층(상계동),37.6557416,127.0653269
676,노원구,노원하계점,서울특별시 노원구 노원로 246 (하계동),37.6396256,127.0741039
677,노원구,노원KT점,서울특별시 노원구 노해로 502 (상계동),37.6543814,127.0636656
678,노원구,당고개점,서울특별시 노원구 상계로 299  (상계동),37.6701177,127.0784158
679,노원구,당고개제일점,서울특별시 노원구 상계로 320 불암빌딩 1층,,
680,노원구,산업대점,서울특별시 노원구 동일로192길 83 (공릉동),37.6275046,127.0771749
681,노원구,상계14단지점,"서울특별시 노원구 동일로228길 29, 1층 101호 (상계동, 주공아파트단지내 유치원상가",37.6677476,127.0587347
682,노원구,상계1호점,서울특별시 노원구 한글비석로24길 49 (상계동),37.6628164,127.0728548
683,노원구,상계2동점,서울특별시 노원구 노원로30길 60,37.65541959999999,127.0703039
684,노원구,상계4호점,서울특별시 노원구 동일로 217가길 23 (상계동),37.6532418,127.0590584
685,노원구,상계대로점,"서울특별시 노원구 상계로 131,1층(상계동)",37.6583316,127.0691422
686,노원구,상계메인점,서울특별시 노원구 덕릉로83길 26 1층(중계동),37.6602831,127.074048
687,노원구,상계본점,서울 노원구 상계동 327-4 1층,37.6559236,127.0643115
688,노원구,상계주공점,"서울특별시 노원구 동일로 1529, 1층 113,114호(상계동)",37.6650599,127.0572782
689,노원구,상계중앙점,서울특별시 노원구 동일로237가길 31,37.6588275,127.0352028
690,노원구,상계한신점,서울특별시 노원구 한글비석로46길 34 (상계동),37.6649476,127.0689961
691,노원구,상계현대점,"서울특별시 노원구 덕릉로122길 25, 1층 101호(상계동)",37.6685767,127.0816177
692,노원구,서울여대기숙사점,서울특별시 노원구 화랑로 621 621 (공릉동),37.6292222,127.0905514
693,노원구,석계점,서울특별시 노원구 석계로 9 선호빌딩 1층 1호(월계동),37.6156692,127.0644319
694,노원구,성북역점,서울특별시 노원구 광운로 71 (월계동),37.6236867,127.0600212
695,노원구,원자력병원점,"서울특별시 노원구 노원로 75  (공릉동, 원자력병원)",37.6294332,127.0826468
696,노원구,월계교육촌점,서울특별시 노원구 월계로44길 51 1층(월계동),37.6229548,127.0524474
697,노원구,월계두산점,서울특별시 노원구 마들로5길 25 104호,37.6763602,127.0488099
698,노원구,월계초안점,서울특별시 노원구 덕릉로60길 234,37.6304897,127.0450138
699,노원구,인덕대후문점,"서울특별시 노원구 초안산로2라길 1 ,1층 (월계동)",37.632094,127.0571691
700,노원구,중계2단지점,서울특별시 노원구 한글비석로 332 주공2단지아파트,37.6576921,127.0787349
701,노원구,중계2호점,서울특별시 노원구 한글비석로 273 (중계동),37.6521219,127.0772046
702,노원구,중계8단지점,"서울특별시 노원구 한글비석로5길 62  (중계동, 중계8단지주공아파트)",37.6462151,127.0751689
703,노원구,중계불암점,서울특별시 노원구 덕릉로 725 105호,37.6623001,127.0756063
704,노원구,중계브라운점,서울특별시 노원구 동일로 203가길 29 중계브라운스톤 103호 (상계동),37.6400147,127.0642892
705,노원구,중계씨앤미점,서울특별시 노원구 동일로204가길 34  (중계동),37.6406859,127.0681273
706,노원구,중계은행사거리점,서울특별시 노원구 중계로18길 9 (중계동),37.651092,127.0777783
707,노원구,중계은행점,"서울특별시 노원구 중계로 220 (중계동, 조충빌딩)",37.6508341,127.075668
708,노원구,중계중앙점,서울특별시 노원구 덕릉로84길 33 501동 104호,37.659884,127.0775052
709,노원구,중계프라자점,서울 노원구 한글비석로 242(중계동) 119호,37.64919800000001,127.0769575
710,노원구,태릉디벨리움점,"서울특별시 노원구 화랑로 443, 1층 101호 (공릉동, 6.7디벨리움)",37.6183099,127.0765239
711,노원구,태릉입구역점,서울특별시 노원구 공릉동 동일로 992,37.6172617,127.0749108
712,노원구,태릉화랑점,서울특별시 노원구 화랑로51길 81,37.6246617,127.0875778
713,도봉구,도봉대복점,서울특별시 도봉구 도봉로 169나길 96 (도봉동),37.6753333,127.0434927
714,도봉구,도봉럭키점,서울특별시 도봉구 도봉로 169나길 24 (도봉동),37.6784866,127.0434693
715,도봉구,도봉방학역점,서울특별시 도봉구 마들로 649-20 메인프라자 108호 (방학동),37.6683013,127.0448212
716,도봉구,도봉방학점,서울특별시 도봉구 방학동 도당로27길 43 1층,37.6692727,127.0408002
717,도봉구,도봉보건소점,"서울특별시 도봉구 도봉로 585,1층 2호 (쌍문동)",37.6571908,127.0393509
718,도봉구,도봉산길점,서울특별시 도봉구 도봉산길 12,37.6875513,127.0444084
719,도봉구,도봉산로점,서울특별시 도봉구 도봉산4길 15 (도봉동),37.6880522,127.0420686
720,도봉구,도봉삼환점,서울특별시 도봉구 도봉로180길 6-81,37.6809076,127.0486883
721,도봉구,도봉안방학길점,서울특별시 도봉구 시루봉로 15길 14 (방학동),37.6678838,127.0329108
722,도봉구,도봉에이치큐브점,서울특별시 도봉구 도봉로 604 에이치큐브병원 (창동),37.6582748,127.0410177
723,도봉구,도봉오봉점,서울특별시 도봉구 도봉로155길 51 제1층 제101호(도봉동),37.6728268,127.0410753
724,도봉구,도봉우이천점,서울특별시 도봉구 도봉로 106길 59 1층 (창동),37.6448751,127.0359843
725,도봉구,도봉창2동점,서울특별시 도봉구 도봉로108길 84 1층(창동),37.6456141,127.0385402
726,도봉구,도봉파크빌점,서울특별시 도봉구 마들로 695 101호,37.6721533,127.0463539
727,도봉구,도봉플러스점,서울특별시 도봉구 도봉로 181길 61 (도봉동),37.6848277,127.0425387
728,도봉구,도봉하늘채점,서울특별시 도봉구 쌍문동 우이천로 367,37.6522545,127.0304855
729,도봉구,방학공원점,서울특별시 도봉구 도봉로145길 7 1층 (방학동),37.6644669,127.0420454
730,도봉구,방학도깨비시장점,서울특별시 도봉구 도당로 91 (방학동),37.6656434,127.0369286
731,도봉구,방학사거리점,서울특별시 도봉구 도봉로 626 (창동),37.6601553,127.0419115
732,도봉구,방학신우점,서울특별시 도봉구 방학로 10길 10 (방학동),37.6628276,127.033066
733,도봉구,방학중앙점,서울특별시 도봉구 도봉로149길 16 1층 (방학동),37.6663175,127.0420409
734,도봉구,번동점,서울특별시 도봉구 덕릉로 101 (번동),37.634972,127.0246022
735,도봉구,쌍문2호점,서울특별시 도봉구 도봉로109길 46 (쌍문동),37.6470746,127.0308214
736,도봉구,쌍문대로점,서울특별시 도봉구 도봉로 489 (쌍문동),37.6493624,127.0347965
737,도봉구,쌍문선덕점,"서울특별시 도봉구 시루봉로 57 (쌍문동, 쌍문동파라다이스빌)",37.65584339999999,127.0276577
738,도봉구,쌍문아트점,서울특별시 도봉구 쌍문동 도봉로 127길 15 1층,37.653915,127.0367446
739,도봉구,쌍문안길점,서울특별시 도봉구 도봉로113길 7 (쌍문동),37.6479029,127.033604
740,도봉구,쌍문역점,서울특별시 도봉구 도봉로 468 (창동),37.6474337,127.0344022
741,도봉구,쌍문점,서울특별시 도봉구 삼양로 542 (쌍문동),37.6515523,127.0129588
742,도봉구,쌍문중앙점,서울 도봉구 쌍문동 우이천로32길 49,37.64988840000001,127.0249046
743,도봉구,쌍문한일병원점,서울특별시 도봉구 우이천로 308 (쌍문동),37.6458568,127.0285789
744,도봉구,창동3호점,서울특별시 도봉구 덕릉로 404 404 (창동),37.6456701,127.0538303
745,도봉구,창동금빛길점,서울특별시 도봉구 우이천로22길 18 (창동),37.6420778,127.0339412
746,도봉구,창동길가온점,서울특별시 도봉구 도봉로112길 41 1층,37.6469598,127.036941
747,도봉구,창동드림점,서울특별시 도봉구 우이천로 214 1층 101호(창동),37.6383237,127.0347716
748,도봉구,창동서부점,서울특별시 도봉구 창동 노해로63길 78 107,37.6525232,127.0463148
749,도봉구,창동아이파크점,"서울특별시 도봉구 도봉로136길 14 상가동 108호(창동, 북한산아이파크)",37.6588953,127.0419832
750,도봉구,창동어울림점,"서울특별시 도봉구 도봉로136가길 68(창동, 창동금호어울림아파트)",37.6563305,127.0417
751,도봉구,창동역점,서울특별시 도봉구 마들로 11가길 13 (창동),37.6528654,127.0491878
752,도봉구,창동우성점,서울특별시 도봉구 덕릉로61길 10,37.6412552,127.0396785
753,도봉구,창동점,서울특별시 도봉구 덕릉로63가길 42 (창동),37.64321880000001,127.038051
754,도봉구,창동주공점,"서울특별시 도봉구 해등로 47 나상가동 101호(창동, 주공3단지아파트)",37.6482026,127.0432844
755,도봉구,창동중앙점,서울특별시 도봉구 노해로69길 21 두승빌딩 1층 102호,37.6531366,127.0505156
756,도봉구,창동타운점,서울특별시 도봉구 덕릉로59차길 28,37.64068049999999,127.0352816
757,도봉구,창동태영점,서울특별시 도봉구 도봉로 110다길 51 창동태영데시앙APT상가 101호 (창동),37.64286269999999,127.0333996
758,동대문구,경희대2호점,서울특별시 동대문구 회기로 147 (회기동),37.5915842,127.0528759
759,동대문구,경희대3호점,서울특별시 동대문구 천장산로7길 39 1층,37.5981437,127.0556804
760,동대문구,경희대4호점,서울특별시 동대문구 회기로 129  (회기동),37.5915578,127.0509252
761,동대문구,경희대기숙사점,서울특별시 동대문구 이문로 9길 46  (이문동),37.5942077,127.0565432
762,동대문구,경희대대현점,서울특별시 동대문구 회기로 163 1층,37.590835,127.0543868
763,동대문구,경희대제일점,서울특별시 동대문구 경희대로 1길 3  (회기동),37.591554,127.0519092
764,동대문구,경희의료원점,서울시 동대문구 경희대로 23(경희의료원 1층),37.5953632,127.0527612
765,동대문구,고대로데오점,서울특별시 동대문구 제기로5길 42 1층,37.588107,127.0354986
766,동대문구,고대안암골점,서울특별시 동대문구 약령시로5길 22-4 1층 101호,37.5835832,127.0341077
767,동대문구,고대원룸점,서울특별시 동대문구 제기로4길 14 1층(제기동),37.5863092,127.037236
768,동대문구,답십리교차로점,"서울특별시 동대문구 전농로 12 1층 5, 6호(답십리동)",37.566059,127.0560618
769,동대문구,답십리미드카운티점,서울특별시 동대문구 답십리로45길 8 1층,37.5732453,127.0559055
770,동대문구,답십리사거리점,서울특별시 동대문구 답십리동 답십리로 168,37.572634,127.0586709
771,동대문구,답십리역점,서울특별시 동대문구 답십리동 천호대로 305   1층,37.5696589,127.0576058
772,동대문구,답십리점,서울특별시 동대문구 한천로11가길 4,37.5670886,127.0615638
773,동대문구,답십리카페점,서울특별시 동대문구 사가정로 8길 27,37.5756587,127.0570739
774,동대문구,답십리타운점,서울특별시 동대문구 전농로5길 20,37.57097479999999,127.0560338
775,동대문구,동대문경남점,서울특별시 동대문구 장한로22길 19 (장안동),37.5694129,127.0714261
776,동대문구,동대문경찰서점,서울특별시 동대문구 홍릉로 29 (청량리동),37.5828618,127.0441065
777,동대문구,동대문구청점,서울시 동대문구 고산자로 28길 21(용두동),37.5751782,127.0394964
778,동대문구,동대문답십리점,서울특별시 동대문구 전농로 91 (전농동),37.5731726,127.0570656
779,동대문구,동대문전농점,서울특별시 동대문구 전농로 153 (전농동),37.5785432,127.0568847
780,동대문구,동대문휘경로점,서울특별시 동대문구 망우로 77  (휘경동),37.5901586,127.0617577
781,동대문구,동의보감점,서울특별시 동대문구 약령중앙로2길 10,37.5786203,127.0374222
782,동대문구,부티크호텔K점,서울특별시 동대문구 천호대로 341,37.5635628,127.0575999
783,동대문구,서울동부병원점,서울특별시 동대문구 왕산로16길 48 1층(용두동),37.5756152,127.0311223
784,동대문구,서울시립대점,서울특별시 동대문구 서울시립대로 164,37.583249,127.0548191
785,동대문구,서울이문로점,서울특별시 동대문구 이문로 203 1층,37.60469399999999,127.061856
786,동대문구,시립대본점,서울 동대문구 전농동 서울시립대로 160,37.5833764,127.0545242
787,동대문구,시립대사랑점,서울특별시 동대문구 전농동 전농로 233 2층,37.5847085,127.0524399
788,동대문구,시립대후문점,서울특별시 동대문구 망우로 18마길 16 (휘경동),37.5862691,127.0608894
789,동대문구,신설2호점,서울시 동대문구 천호대로 7-10(신설동),37.5754042,127.0248657
790,동대문구,신설3호점,서울시 동대문구 한빛로 6(신설동),37.5763709,127.0244173
791,동대문구,신제기점,"서울시 동대문구 왕산로 19나길 3(제기동, 태종빌딩)",37.5786393,127.0331255
792,동대문구,아이클래스청계점,서울특별시 동대문구 청계천로 461,37.57067070000001,127.0284356
793,동대문구,안암로타리점,서울특별시 동대문구 무학로 202 (제기동),37.5821915,127.0299808
794,동대문구,약령시장점,서울특별시 동대문구 고산자로 451,37.5800248,127.0381593
795,동대문구,외대경희점,서울 동대문구 이문동 이문로9나길 6-14 102호,37.5982355,127.0565694
796,동대문구,외대대로점,서울특별시 동대문구 이문로 130  (이문동),37.5980735,127.0614466
797,동대문구,외대미니점,"서울특별시 동대문구 이문로9길 105 (이문동, 1층 103호)",37.5967545,127.0565994
798,동대문구,외대앞역점,서울특별시 동대문구 이문동 82-13,37.5953466,127.0633266
799,동대문구,외대점,서울특별시 동대문구 이문로 112 1층 2호(이문동),37.5964905,127.0605616
800,동대문구,외대한남점,서울 동대문구 이문동 회기로25길 133,37.5954579,127.0580664
801,동대문구,용두사거리점,"서울특별시 동대문구 왕산로 68 1층 102호(용두동 119-1,2번지, 용운빌딩)",37.5774477,127.0308778
802,동대문구,용두역점,서울특별시 동대문구 천호대로 151,37.5736533,127.0402303
803,동대문구,이문경희점,서울시 동대문구 이문로 58(휘경동) 1층,37.592347,127.0577795
804,동대문구,이문대림점,서울특별시 동대문구 신이문로 27-7 1층 (이문동),37.6034148,127.0652968
805,동대문구,이문대화점,서울특별시 동대문구 천장산로 31  (이문동),37.5986903,127.0576644
806,동대문구,이문통일점,"서울특별시 동대문구 이문로 86 101호(이문동, 민족통일대통령리빙텔)",37.5944297,127.0591879
807,동대문구,장안2호점,서울특별시 동대문구 천호대로 83길 93,37.5660983,127.0666711
808,동대문구,장안금빛점,서울특별시 동대문구 한천로26길 58,37.5712288,127.0678714
809,동대문구,장안노블레스점,"서울특별시 동대문구 장한로2길 52 B동 1층 101,102호",37.5616409,127.0680431
810,동대문구,장안대로점,서울특별시 동대문구 장한로 92,37.5687985,127.0698387
811,동대문구,장안래미안점,서울특별시 동대문구 답십리로69길 55 웰빙프라자 105호(장안동),37.5745674,127.073684
812,동대문구,장안바우점,서울특별시 동대문구 장한로 130,37.5717813,127.0718257
813,동대문구,장안본점,서울특별시 동대문구 답십리로 247,37.572823,127.0679615
814,동대문구,장안사거리점,서울특별시 동대문구 장한로25길 3 (장안동),37.5715065,127.0709144
815,동대문구,장안삼환파크빌점,서울특별시 동대문구 장한로36길 32 1층 1호,37.5778218,127.0732378
816,동대문구,장안샛별점,서울특별시 동대문구 답십리로68길 112 1층,37.567866,127.0668857
817,동대문구,장안센터점,서울특별시 동대문구 답십리로68길 71 (장안동),37.569373,127.0681924
818,동대문구,장안스타점,서울특별시 동대문구 천호대로 365 1층(장안동),37.5625074,127.0597174
819,동대문구,장안썬앤빌점,서울특별시 동대문구 장한로 91 1층 109호,37.5691153,127.0693412
820,동대문구,장안위더스점,서울특별시 동대문구 한천로 60,37.56694590000001,127.062547
821,동대문구,장안제일점,서울특별시 동대문구 장안동 답십리로65길 22-2  1층,37.5734476,127.0691254
822,동대문구,장안한천로점,서울특별시 동대문구 한천로14길 21,37.5672772,127.0639895
823,동대문구,장안해피트리점,서울특별시 동대문구 장안동 천호대로79길 30 1층,37.5636962,127.0632703
824,동대문구,장안힐스테이트점,"서울특별시 동대문구 장안벚꽃로1길 7 (장안동, 장안힐스테이트 상가 104호~106호)",37.5759638,127.0753716
825,서울시립대로 31,전농점,서울동대문구 서울시립대로 31 전농동동아아파트 상가,37.5748683,127.045796
826,동대문구,제기미주점,"서울특별시 동대문구 정릉천동로 80 (제기동,경동미주아파트)",37.5791182,127.0357097
827,동대문구,청계두물다리점,서울시 동대문구 청계천로 509(용두동),37.5711277,127.0331649
828,동대문구,청계스카이렉스점,서울특별시 동대문구 신설동 청계천로417 대성스카이렉스 1층 101호,37.5719794,127.0238816
829,동대문구,청량리시조사점,서울특별시 동대문구 왕산로 287,37.5861578,127.0515904
830,동대문구,청량리역사점,서울시 동대문구 왕산로 2길 214(전농동) 3층 311,37.5752996,127.0255275
831,동대문구,청량미주점,서울특별시 동대문구 청량리동 왕산로 225 1층 13호 (청량리동),37.5820032,127.047128
832,동대문구,회기해피파크점,서울특별시 동대문구 회기동 77-40,37.5898233,127.0553077
833,동대문구,휘경망우로점,서울특별시 동대문구 망우로16길 11-4 (휘경동),37.5894167,127.0616108
834,동대문구,휘경본점,서울특별시 동대문구 이문로 42-1 (이문동),37.5910375,127.0568403
835,동대문구,휘경스타점,"서울특별시 동대문구 한천로 279, 1층(휘경동)",37.585792,127.0671975
836,동대문구,휘경시립대점,서울특별시 동대문구 망우로 10길 45 (휘경동),37.5868895,127.0565484
837,동대문구,휘경시민점,서울특별시 동대문구 망우로18나길 3 (휘경동),37.5873161,127.0605535
838,동대문구,S장한평역점,서울특별시 동대문구 천호대로 지하405,37.5690448,127.044881
839,동작구,남성중앙점,서울특별시 동작구 남부순환로255다길 41 1층,37.47820129999999,126.9722539
840,동작구,노량제일점,서울 동작구 노량진동 27-10,37.51307020000001,126.9363498
841,동작구,노량진5호점,서울특별시 동작구 만양로12길 16 (노량진동),37.5100787,126.9462984
842,동작구,노량진사랑점,서울특별시 동작구 만양로 53-1,37.5087252,126.9463841
843,동작구,노량진삼익점,서울특별시 동작구 만양로 88 (노량진동),37.511305,126.9445731
844,동작구,노량진역점,서울특별시 동작구 노량진로14길 4  (노량진동),37.5132746,126.9419494
845,동작구,대방동길점,서울특별시 동작구 대방동길 11 1츨 일부(대방동),37.5007177,126.9272682
846,동작구,대방성남점,"서울특별시 동작구 대방동길 71 (대방동, 1층코너)",37.5044339,126.9251249
847,동작구,대방점,서울특별시 동작구 등용로 119 유진빌딩 1층,37.5117073,126.9317811
848,동작구,동작구청점,서울특별시 동작구 장승배기로 159  (노량진동),37.5117047,126.9400125
849,동작구,동작남성점,서울특별시 동작구 사당로23길 2 1층(사당동),37.4841292,126.9774271
850,동작구,동작대로점,서울특별시 동작구 동작대로 43 (사당동),37.4967987,126.9812192
851,동작구,동작대림점,서울특별시 동작구 상도로 43-1 101호,37.5001727,126.9251962
852,동작구,동작대방역점,서울특별시 동작구 노량진로 22,37.5128454,126.9281307
853,동작구,동작대방점,서울특별시 동작구 여의대방로 130-1  (대방동),37.4985943,126.9205809
854,동작구,동작리버하임점,서울특별시 동작구 현충로 52,37.5109104,126.9613564
855,동작구,동작사당점,서울특별시 동작구 동작대로1길 45 (사당동),37.4771975,126.9787901
856,동작구,동작상도점,서울특별시 동작구 상도동 상도로 206,37.5049279,126.9415119
857,동작구,동작성대로점,서울특별시 동작구 성대로1길 9,37.5006932,126.9330149
858,동작구,동작성대점,서울특별시 동작구 성대로6길 10  (상도동),37.4989825,126.9326592
859,동작구,동작중앙점,서울특별시 동작구 상도로15마길 10 101호,37.5031451,126.9341336
860,동작구,동작행림점,서울특별시 동작구 솔밭로 59 (사당동),37.481865,126.9663706
861,동작구,리버파크점,"서울특별시 동작구 만양로3길 20  (노량진동, 신동아리버파크빌)",37.50817139999999,126.9462154
862,동작구,보라매점,서울특별시 동작구 보라매로5가길 16 보라매아카데미,37.4912431,126.9240825
863,동작구,사당1동점,서울특별시 동작구 남부순환로265가길 20 제지하층 제101호(사당동),37.4778527,126.9763588
864,동작구,사당6호점,서울특별시 동작구 사당로2차길 2 (사당동),37.4877256,126.9648482
865,동작구,사당남사점,서울특별시 동작구 동작대로13길 34 (사당동),37.4818936,126.9780388
866,동작구,사당남성점,서울특별시 동작구 사당로14길 30 (사당동),37.4828839,126.9710885
867,동작구,사당대림점,서울특별시 동작구 사당로17길 75,37.4862609,126.9723222
868,동작구,사당동작점,서울특별시 동작구 사당동 동작대로35다길 22 1층,37.4922185,126.9792766
869,동작구,사당로이파크점,"서울특별시 동작구 사당로23길 112 상가 108호,109호(사당동)",37.4877657,126.9732616
870,동작구,사당로점,서울특별시 동작구 사당로28길 56 (사당동),37.4795884,126.9792585
871,동작구,사당롯데캐슬점,서울특별시 동작구 사당로27번길 190 롯데캐슬아파트상가 103호,37.489849,126.97111
872,동작구,사당메트로점,"서울특별시 동작구 동작대로 3 사당역(4호선) (사당동, 사당역) 지하3, 226-03",37.47849,126.98135
873,동작구,사당번영점,서울특별시 동작구 사당로29가길 41 1층,37.4868448,126.9797082
874,동작구,사당서광점,서울특별시 동작구 동작대로27다길 29 (사당동),37.4862393,126.9806459
875,동작구,사당시네마점,"서울특별시 동작구 동작대로 89 골든시네마 제1층 제101호(사당동, 골든시네마타워)",37.484694,126.9817635
876,동작구,사당중앙점,서울특별시 동작구 동작대로3길 10 1층(사당동),37.4784223,126.980812
877,동작구,상도2호점(중앙대점),서울특별시 동작구 흑석로 23 (상도동),37.5050635,126.9532918
878,동작구,상도럭키점,서울특별시 동작구 상도동 359-20,37.5043898,126.9366743
879,동작구,상도신동아점,서울특별시 동작구 상도동 만양로 9-1,37.5056501,126.9468051
880,동작구,상도역점,서울특별시 동작구 상도로 274 (상도1동),37.5028341,126.9474814
881,동작구,상도점,서울특별시 동작구 사당로 56 (상도동),37.4945341,126.9605598
882,동작구,상도주공점,"서울특별시 동작구 상도로53길 70 (상도동, 상도에스에이치빌)",37.5022216,126.954303
883,동작구,상도터널점,서울특별시 동작구 상도로 265-30,37.50418579999999,126.9488151
884,동작구,상도파크자이점,서울특별시 동작구 장승배기로11가길 11 상가1층 103호(상도동),37.50607310000001,126.9387937
885,동작구,상도한마을점,서울특별시 동작구 상도로 47길 30 (상도1동),37.5003965,126.9522192
886,동작구,상도한사랑점,서울특별시 동작구 상도로41길 39 (상도1동),37.5024617,126.9511024
887,동작구,숭실대정문점,서울특별시 동작구 상도로 372-4 1층(상도동),37.4955235,126.9537281
888,동작구,숭실대중앙점,서울특별시 동작구 상도로61길 43 1층,37.4948295,126.9572717
889,동작구,신대방문창점,서울특별시 동작구 신대방2길 70,37.4894296,126.9109372
890,동작구,신대방삼거리점,서울특별시 동작구 보라매로 113  (대방동),37.49942480000001,126.927877
891,동작구,신대방점,서울특별시 동작구 보라매로 91 1층(신대방동),37.49749630000001,126.9276479
892,동작구,어바니엘한강점,서울특별시 동작구 노량진로 190,37.5130951,126.9469753
893,동작구,이수남성점,서울특별시 동작구 동작대로 33길 7 (사당동),37.4893749,126.9817849
894,동작구,장승배기로점,서울특별시 동작구 장승배기로 27 (상도동),37.5004705,126.9417162
895,동작구,중앙대경영관점,서울특별시 동작구 흑석로6길 61 중앙대학교 310관 B411호,37.5050881,126.9571012
896,동작구,중앙대병원점,서울특별시 동작구 흑석동 224-1,37.5069754,126.9605231
897,동작구,중앙대점,서울특별시 동작구 흑석로 83,37.5071173,126.9587261
898,동작구,중앙대R&D센터점,서울특별시 동작구 흑석로 84 약학대학 R&D센터지하 1층,37.5050881,126.9571012
899,동작구,흑석리버하임점,"서울특별시 동작구 현충로 52,아크로 리버하임 근린생활시설 7-2 34호(흑석동)",37.5109104,126.9613564
900,마포구,공덕10번출구점,서울특별시 마포구 새창로 28 1층(도화동),37.5416235,126.952919
901,마포구,공덕글래드호텔점,서울특별시 마포구 마포대로 92 A동 9층,37.5426383,126.9518887
902,마포구,공덕서울창업허브점,서울특별시 마포구 백범로31길 21 한국산업인력공단 1층,37.5468224,126.9500658
903,마포구,공덕자이점,서울특별시 마포구 마포대로24길 5 공덕자이아파트 임대상가 1층 101호,37.5543228,126.9588501
904,마포구,관악과천대로점,서울특별시 마포구 마포대로 69 (도화동),37.542017,126.9486316
905,마포구,광흥창역점,서울시 마포구 창전로 64 (신수동),37.5480415,126.9328779
906,마포구,노고산타운점,서울특별시 마포구 고산길 85,37.5548509,126.9415147
907,마포구,당인동점,서울시 마포구 어울마당로 26 (당인동) 제일빌딩 1층,37.5474452,126.9199153
908,마포구,대흥미소점,"서울특별시 마포구 독막로 266 (대흥동, 마포태영아파트)",37.54477,126.9426066
909,마포구,도화점,"서울특별시 마포구 새창로 52 도화현대아파트 상가동 13동 109,110호",37.5408986,126.9522783
910,마포구,동교다온점,서울특별시 마포구 월드컵북로4길 12 (동교동),37.5571302,126.9208486
911,마포구,동교숲길점,서울특별시 마포구 동교로 232 1층(동교동),37.5605416,126.9244438
912,마포구,동교홍대점,서울 마포구 동교동 양화로 19길 6,37.5579859,126.9244953
913,마포구,롯데시티호텔마포점,서울특별시 마포구 마포대로 109 2층(공덕동),37.5448909,126.9506066
914,마포구,마사회연수5층점,서울특별시 마포구 공덕동 마포대로 14가길 10 동아빌딩2층,37.5493421,126.9561388
915,마포구,마포2점,서울특별시 마포구 마포대로4길 2-1,37.5389361,126.9457702
916,마포구,마포고려점,서울특별시 마포구 마포대로 5 고려아카데미텔2,37.55136960000001,126.956111
917,마포구,마포구청점,서울 마포구 월드컵로 204 1층 세븐일레븐,37.5573679,126.9045325
918,마포구,마포노고산점,서울특별시 마포구 신촌로14길 5 1층(노고산동),37.5556245,126.933957
919,마포구,마포대흥점,서울특별시 마포구 독막로 253-1 1층,37.546414,126.9417596
920,마포구,마포동교로점,서울특별시 마포구 동교로25길 28 102호,37.5582787,126.921142
921,마포구,마포리버웰점,"서울특별시 마포구 토정로31길 23 112동 제지1층 103호(용강동, 마포 리버웰)",37.542319,126.943065
922,마포구,마포망원역점,서울 마포구 월드컵로 13길 9 1층,37.5555348,126.9097382
923,마포구,마포서교점,서울특별시 마포구 서교동 381-13,37.5527253,126.9141204
924,마포구,마포성산대로점,"서울특별시 마포구 월드컵북로 185, 1층 (성산동)",37.5678704,126.9079329
925,마포구,마포성산본점,서울 마포구 월드컵북로 69 성산빌딩 1층,37.5598956,126.9163368
926,마포구,마포성산점,서울 마포구 성미산로 23 1층,37.5586869,126.9108433
927,마포구,마포스토리점,서울 마포구 월드컵북로 13 163 1층,37.556054,126.9200536
928,마포구,마포신라스테이점,"서울특별시 마포구 마포대로 83, 신라스테이호텔 1층 편의점",37.542767,126.94967
929,마포구,마포아크로타워점,서울특별시 마포구 마포대로 68(도화동),37.5412413,126.9489446
930,마포구,마포양원점,"서울특별시 마포구 고산18길 7 1층(대흥동,동우빌딩)",37.5539943,126.9453759
931,마포구,마포연남본점,서울 마포구 성미산로 17길 114 1층,37.5665075,126.9170627
932,마포구,마포연남점,서울 마포구 성미산로 142 1층,37.5636161,126.9222853
933,마포구,마포연남중앙점,서울특별시 마포구 연남동 동교로 239,37.5636486,126.9240865
934,마포구,마포우남점,서울특별시 마포구 모래내로 5 제1층,37.5642345,126.9037221
935,마포구,마포중동점,서울 마포구 성암로 7길 22,37.5696474,126.9064953
936,마포구,마포토정로점,서울 마포구 토정로 32길 12 (토정동),37.5402976,126.9407371
937,마포구,마포한사랑길점,서울특별시 마포구 성미산로11길 81 지오빌 101호,37.56103239999999,126.9226733
938,마포구,마포합정점,서울특별시 마포구 양화로 27(합정동),37.5491064,126.9122242
939,마포구,마포홍익점,서울특별시 마포구 홍익로6길 52 (동교동),37.5562719,126.9243717
940,마포구,마포KCC웰츠타워점,서울특별시 마포구 백범로 202 마포kcc웰츠타워,37.542815,126.9522783
941,마포구,망원2호점,서울특별시 마포구 월드컵로 161(망원동),37.5619258,126.9043773
942,마포구,망원대림점,서울특별시 마포구 망원로1길 28 1층(망원동),37.5576121,126.8997729
943,마포구,망원동교로점,서울특별시 마포구 동교로9길 83 1층(망원동),37.5571046,126.9080991
944,마포구,망원망리단길점,서울특별시 마포구 망원로6길 49 1층,37.5547476,126.903929
945,마포구,망원보령점,서울특별시 마포구 희우정로 111 1층(망원동),37.5546436,126.9007842
946,마포구,망원본점,서울 마포구 망원동 방울내로 65 (망원동),37.5599577,126.9025057
947,마포구,망원스타점,서울 마포구 망원로 58 1층,37.5568226,126.9032365
948,마포구,망원점,서울 마포구 망원로 69 1층,37.5573708,126.9045391
949,마포구,망원제일점,서울특별시 마포구 포은로 75 1층(망원동),37.5538076,126.9055521
950,마포구,메세나폴리스2호점,"서울특별시 마포구 양화로 45 2층 219호(서교동, 메세나폴리스)",37.5489656,126.9134767
951,마포구,메세나폴리스점,서울특별시 마포구 양화로 45(서교동),37.5489656,126.9134767
952,마포구,상암누리꿈스퀘어점,서울 마포구 월드컵북로 396 R동 107호,37.5791192,126.8902941
953,마포구,상암우리점,서울 마포구 월드컵북로 56길 9 우리기술빌딩 1층 101호,37.5815036,126.8872557
954,마포구,상암월드컵단지점,서울 마포구 상암산로 1길 57,37.5796765,126.8845108
955,마포구,상암중앙점,"서울특별시 마포구 성암로 219-2 , 1층 전부 (상암동)",37.5786562,126.8954952
956,마포구,상암휴먼시아점,서울 마포구 월드컵북로 43길 11 휴먼시아 상가동 B101호,37.5741991,126.8962551
957,마포구,상암DMC빌점,서울 마포구 월드컵북로 60길 13 DMC 빌 1층 103호,37.5824487,126.8851499
958,마포구,상암DMC점,서울 마포구 월드컵북로 402 케이지아이티센타 1층 144호,37.5802427,126.8888479
959,마포구,상암KLID타워점,서울특별시 마포구 성암로 301 1층,37.5846777,126.8857357
960,마포구,서강대르메이에르점,서울 마포구 백범로 13(노고산동),37.5534308,126.9375906
961,마포구,서강레지덴시아점,서울 마포구 신수동 81-136번지 1층,37.5519825,126.9369547
962,마포구,서강쌍용예가점,서울특별시 마포구 독막로 147-10 2층(창전동),37.5479372,126.9303116
963,마포구,서교2호점,서울특별시 마포구 독막로7길 16(남주빌딩),37.5485248,126.9189503
964,마포구,서교3호점,서울 마포구 동교로 129 1층,37.5552084,126.9165596
965,마포구,서교8호점,서울특별시 마포구 월드컵로 30(서교동),37.5520734,126.9126032
966,마포구,서교삼양점,서울특별시 마포구 양화로6길 9 -28 1층,37.5493292,126.9149913
967,마포구,서교세교길점,서울특별시 마포구 양화로 12길 8-5(서교동),37.551701,126.917776
968,마포구,서교일등점,"서울특별시 마포구 와우산로27길 24, 1층 2호(서교동)",37.5542785,126.9272094
969,마포구,서교중앙점,서울 마포구 동교로 142 1층,37.5551115,126.9177878
970,마포구,서교한우물점,서울특별시 마포구 서교동 468-3,37.55677379999999,126.9140379
971,마포구,서울여고점,서울특별시 마포구 백범로25길 25 1층(염리동),37.5470421,126.9469076
972,마포구,신수크리스마스점,"서울특별시 마포구 독막로28길 7 (신수동, 성원아파트상가)",37.5467393,126.9375486
973,마포구,신수클리닉점,서울특별시 마포구 서강로 106 신촌크리닉존 102호,37.5522946,126.9335019
974,마포구,아현점,서울특별시 마포구 마포대로 213-1 (아현동),37.5531634,126.9562105
975,마포구,아현푸르지오점,서울특별시 마포구 아현동 마포래미안푸르지오단지내상가 1-111,37.5564549,126.9552954
976,마포구,연남숲길점,서울특별시 마포구 성미산로23길 16-5 B101호(연남동),37.5644709,126.9213708
977,마포구,연희로점,"서울특별시 마포구 연희로 43, 1층 101, 102호(연남동)",37.5625741,126.9274888
978,마포구,염리2호점,서울시 마포구 독막로 291 (염리동),37.5446874,126.9454685
979,마포구,오벨리스크점,서울 마포구 도화동 555 오벨리스크 상가 112호,37.5399759,126.9454625
980,마포구,용강점,서울시 마포구 대흥로 36 (용강동),37.5439277,126.9387168
981,마포구,이대역점,서울특별시 마포구 대흥로30길 14 (염리동),37.5562142,126.9468555
982,마포구,중동성사길점,서울 마포구 성암로 3길 27 1층,37.568238,126.9111457
983,마포구,참누리월드컵단지점,서울 마포구 월드컵북로 38길 48,37.5717497,126.9051481
984,마포구,창전신촌점,"서울특별시 마포구 서강로 111-1, 1층 (창전동)",37.5531467,126.9332691
985,마포구,합정2호점,서울특별시 마포구 동교로 52(합정동),37.5528074,126.9079784
986,마포구,합정당인점,서울특별시 마포구 성지3길 74 1층(합정동),37.5459552,126.916895
987,마포구,합정동점,서울특별시 마포구 양화로1길 38(합정동),37.55034029999999,126.9105064
988,마포구,합정역본점,"서울특별시 마포구 월드컵로1길 40, 1층 (합정동)",37.5493998,126.9107204
989,마포구,합정역점,서울 마포구 양화로 56 동양트레빌 101호,37.5497249,126.915015
990,마포구,홍대5번출구점,서울특별시 마포구 신촌로2안길 2 1층,37.55755,126.927296
991,마포구,홍대6번출구점,서울특별시 마포구 신촌로6길 24 (동교동),37.5562756,126.9297374
992,마포구,홍대7번출구점,서울특별시 마포구 와우산로35길 55,37.5563885,126.9276828
993,마포구,홍대교연점,"서울특별시 마포구 와우산로 140 1층101,102호(창전동)",37.5537879,126.9291494
994,마포구,홍대기숙사점,서울특별시 마포구 독막로 101 BR엘리텔 B동 1층,37.5483192,126.9250725
995,마포구,홍대서교점,서울특별시 마포구 월드컵북로1길 18 1층(서교동),37.5550452,126.9201859
996,마포구,홍대스타점,서울 마포구 어울마당로 74 1층,37.5515945,126.9215904
997,마포구,홍대신화점,서울 마포구 홍익로 10 1층 101호 B137호,37.553716,126.9236241
998,마포구,홍대역점,서울 마포구 서교동 홍익로 19 (358-1번지),37.5539599,126.9226065
999,마포구,홍대중앙점,서울 마포구 어울마당로 130 기린빌딩 1층,37.5557852,126.9245028
1000,마포구,홍대창전점,서울 마포구 서강로 9길 60 1층,37.5546031,126.9305106
1001,마포구,홍대클럽점,서울특별시 마포구 어울마당로 58 1층 코너(서교동),37.5500661,126.9212695
1002,마포구,홍익대2호점,서울시 마포구 와우산로 63 (서교동),37.5502329,126.922865
1003,마포구,홍익태화점,서울특별시 마포구 서교동 343-2,37.553433,126.925688
1004,마포구,E공덕S오일본사점,"서울특별시 마포구 백범로 192 B1층 일부(공덕동, S-OIL빌딩)",37.5431932,126.9516036
1005,마포구,M신촌역점,"서울특별시 마포구 신촌로 104 신촌역 7,8번 출구 下",37.5551506,126.9368914
1006,마포구,M합정점,"서울특별시 마포구 합정동 양화로 지하45, 238-11호",37.552785,126.9186125
1007,마포구,S공덕역점,"서울특별시 마포구 마포대로 지하 100 1011호(공덕동, 공덕역(지하1층))",37.5458958,126.9515058
1008,마포구,S마포역점,서울특별시 마포구 마포대로 33(도화동),37.5399759,126.9454625
1009,마포구,S애오개역점,서울특별시 마포구 마포대로 210(아현동),37.5513892,126.9556875
1010,마포구,SBS프리즘타워점,서울 마포구 상암동 SBS프리즘타워,37.579692,126.8927004
1011,마포구,SK마포양지점,서울특별시 마포구 마포대로 69 (도화동),37.542017,126.9486316
1012,서대문구,가재울아이파크점,"서울특별시 서대문구 거북골로 14길 32 북가좌동, 가재울아이파크아파트",37.575452,126.91325
1013,서대문구,가재울현대점,서울특별시 서대문구 남가좌동 가재울로 45 1층 105106호,37.5747622,126.9205488
1014,서대문구,독립문e편한점,서울특별시 서대문구 독립문로1길 1 (영천동),37.5706548,126.959736
1015,서대문구,동서한방병원점,서울특별시 서대문구 성산로 365-18 (연희동),37.5647627,126.9298707
1016,서대문구,명지대원룸점,서울특별시 서대문구 명지대3길 14 1층 우측과 지하층,37.582202,126.922922
1017,서대문구,명지대점,서울특별시 서대문구 명지대길 24 홍은동,37.5814142,126.9248637
1018,서대문구,명지대행복점,서울특별시 서대문구 증가로10길 59 (남가좌동),37.5795434,126.9250344
1019,서대문구,명지전문대점,서울특별시 서대문구 가좌로 118 (홍은동),37.5829877,126.9256857
1020,서대문구,명지충암점,서울특별시 서대문구 홍은동 가좌로 142 1층,37.5846694,126.9240447
1021,서대문구,북가좌3호점,서울특별시 서대문구 응암로 127-4 북가좌동,37.58406799999999,126.9140673
1022,서대문구,북가좌거북점,"서울특별시 서대문구 거북골로22길 13 1층 101호(북가좌동, 블리스빌)",37.5794901,126.908524
1023,서대문구,북가좌맑음길점,서울특별시 서대문구 증가로 24나길 20 북가좌동,37.5815869,126.9157699
1024,서대문구,북가좌본점,"서울특별시 서대문구 응암로 1길 20 북가좌동,1층",37.5818623,126.9101559
1025,서대문구,북가좌증가로점,서울특별시 서대문구 증가로25길 13 101호,37.5811047,126.9136891
1026,서대문구,북가좌행복점,서울특별시 서대문구 증가로 243(북가좌동),37.5826727,126.9125376
1027,서대문구,북가좌휴먼빌점,서울특별시 서대문구 거북골로18가길 23 상가동 202호,37.5773777,126.9117904
1028,서대문구,서대문구청점,서울특별시 서대문구 연희로 276 홍은동,37.5816521,126.9366043
1029,서대문구,서대문남가좌점,서울특별시 서대문구 증가로6길 32 1층,37.5778226,126.9260327
1030,서대문구,서대문동명점,서울특별시 서대문구 독립문로 40 1층 3호(천연동),37.5686252,126.9615177
1031,서대문구,서대문연희로점,서울특별시 서대문구 연희로 85 연희동,37.5659531,126.9298842
1032,서대문구,신촌3호점,서울특별시 서대문구 연세로5다길 22-3,37.5567266,126.9342786
1033,서대문구,신촌대현점,서울특별시 서대문구 이화여대1길 42-14,37.5578092,126.9435508
1034,서대문구,신촌명물점,서울특별시 서대문구 명물길 37 1층,37.5584944,126.9382782
1035,서대문구,신촌연세2호점,서울특별시 서대문구 연세로9길 34-1 (창천동),37.5586535,126.9348295
1036,서대문구,신촌연세점,서울특별시 서대문구 연세로7안길 31,37.5580084,126.9350379
1037,서대문구,신촌원룸점,"서울특별시 서대문구 성산로22길 22, 1층(창천동)",37.5598474,126.9340326
1038,서대문구,신촌제일점,서울특별시 서대문구 신촌로11길 15,37.5573197,126.9328033
1039,서대문구,신촌중앙점,서울특별시 서대문구 신촌역로 27,37.5587897,126.9422603
1040,서대문구,신촌창천점,서울특별시 서대문구 연세로4길 41 1층(창천동),37.5579831,126.9387279
1041,서대문구,신촌행촌주유소점,서울특별시 서대문구 대신동 성산로 490,37.5609892,126.9415682
1042,서대문구,신촌현대2호점,서울특별시 서대문구 연세로5길 32,37.5563281,126.9353504
1043,서대문구,신촌현대점,서울특별시 서대문구 연세로5가길 4,37.5571151,126.9363895
1044,서대문구,연대서문점,서울특별시 서대문구 연희로10길 62,37.5644372,126.9327357
1045,서대문구,연대연희점,서울특별시 서대문구 연희동 187-3 1층,37.56616229999999,126.9315882
1046,서대문구,연대제일점,서울특별시 서대문구 성산로 380 (연희동),37.5628756,126.9306266
1047,서대문구,이대1호점,"서울특별시 서대문구 신촌역로 13 1층(대현동, 세오빌딩)",37.55778129999999,126.9425473
1048,서대문구,이대정문점,서울특별시 서대문구 이화여대길 37 1층(대현동),37.5585928,126.9455306
1049,서대문구,이대APM점,서울특별시 서대문구 이화여대3길 6 1층(대현동),37.5580694,126.9454418
1050,서대문구,충정골든타워점,서울특별시 서대문구 충정로 53 골든타워빌딩,37.5637294,126.9646376
1051,서대문구,충정로3가점,서울특별시 서대문구 충정로 30(충정로3가),37.5615341,126.964087
1052,서대문구,충정로구세군점,서울특별시 서대문구 경기대로7길 27(충정로3가 추정으로 검색불가),37.5632465,126.9604537
1053,서대문구,한성화교점,서울특별시 서대문구 연희동 79-24,37.5723477,126.9355673
1054,서대문구,홍은점,서울특별시 서대문구 가좌로 100 홍은동,37.5817574,126.9269284
1055,서대문구,홍은중앙길점,"서울특별시 서대문구 홍은중앙로 96, 1층 (홍은동)",37.5991239,126.9480527
1056,서대문구,홍은힐튼점,서울특별시 서대문구 연희로 41가길 3 홍은동,37.589976,126.9351215
1057,서대문구,홍제문화공원점,서울특별시 서대문구 세검정로4길 10 홍제동,37.59423779999999,126.9487873
1058,서대문구,홍제세검정길점,서울특별시 서대문구 세검정로 89 홍제동,37.5957143,126.9486488
1059,서대문구,홍제인왕점,서울특별시 서대문구 통일로40길 47 1층 101호,37.5767207,126.9543443
1060,서대문구,홍제점,서울시 서대문구 세무서길 110 홍제동,37.5925738,126.9475946
1061,서대문구,홍제천점,서울특별시 서대문구 홍제내길 128 홍제동,37.5879901,126.9367146
1062,서대문구,홍제포방교점,서울특별시 서대문구 포방터길 20 1층(홍제동),37.5975469,126.9487374
1063,서대문구,DMC아이파크점,서울특별시 서대문구 증가로 150 B308호,37.5777864,126.9208844
1064,서대문구,S충정로역점,서울특별시 서대문구 경기대로7길 27(충정로3가 추정으로 검색불가),37.5632465,126.9604537
1065,서초구,강남광장점,서울특별시 서초구 서초대로77길 9 1층 101호(서초동),37.4985508,127.0261996
1066,서초구,강남대승점,서울특별시 서초구 강남대로61길 3 대승빌딩 102호(서초동),37.4991749,127.0265629
1067,서초구,강남본점,"서울특별시 서초구 서초대로77길 27 (일명 유메디칼시티), 1층(서초동, 유빌딩)",37.5000875,127.0254909
1068,서초구,강남역TGI점,서울특별시 서초구 서초대로 405  (서초동),37.4975735,127.0253754
1069,서초구,강남제일점,서울특별시 서초구 서초대로77길 43 경원빌딩 1층,37.5013492,127.0249112
1070,서초구,강남중앙점,서울특별시 서초구 서초대로77길 35 1층 103호(서초동),37.5008163,127.0252564
1071,서초구,교대역사거리점,서울특별시 서초구 서초중앙로 138 1층(서초동),37.4942069,127.0139398
1072,서초구,교대역점,서울특별시 서초구 서초대로50길 24 청화빌딩 1층 101호,37.49204659999999,127.0128023
1073,서초구,교보타워사거리점,서울특별시 서초구 반포동 사평대로 365 광혜빌딩1층2호,37.5042654,127.0229669
1074,서초구,꽃마을점,서울특별시 서초구 효령로 49길 38(서초동),37.48561189999999,127.0099595
1075,서초구,내방중앙점,서울특별시 서초구 방배로23길 32-1 1층,37.4859277,126.9924278
1076,서초구,반포2호점,서울특별시 서초구 신반포로 41 (반포동),37.5111586,127.016472
1077,서초구,반포3호점,서울특별시 서초구 반포대로 300-3 상화빌딩,37.5057416,127.00122
1078,서초구,반포9호점,서울특별시 서초구 서로래6길 25 (반포동),37.4837121,127.0324112
1079,서초구,반포공원점,서울특별시 서초구 사평대로55길 123 (반포동),37.509168,127.0203327
1080,서초구,반포나래점,서울특별시 서초구 서초중앙로31길 14-13 (반포동),37.500656,127.0104191
1081,서초구,반포래미안점,서울특별시 서초구 반포대로 275 1층 126호(반포주공2단지-래미안퍼스티지),37.5027777,126.9983054
1082,서초구,반포사평로점,서울특별시 서초구 사평대로6길 7 (방배동),37.4977192,126.9908954
1083,서초구,반포서래점,서울특별시 서초구 서래로6길 4 가나빌딩 1층(반포동),37.4976614,126.998497
1084,서초구,반포은석점,서울특별시 서초구 주흥길 59 지층 1호(반포동),37.5079565,127.0194053
1085,서초구,반포주공점,서울특별시 서초구 신반포로 22 (반포동),37.5011293,126.9871614
1086,서초구,반포주흥길점,서울특별시 서초구 주흥15길 3,37.5091382,127.0186953
1087,서초구,반포효성점,서울특별시 서초구 반포대로 235 (반포동),37.5005675,127.0033213
1088,서초구,방배12호점,서울특별시 서초구 방배중앙로 138(방배동),37.4912966,126.9871053
1089,서초구,방배17호점,서울특별시 서초구 도구로 77 (방배동),37.4833891,126.9867044
1090,서초구,방배18호점,서울특별시 서초구 효령료 28 (방배동),37.4776257,126.9880293
1091,서초구,방배6호점,서울특별시 서초구 서초대로25길 27(방배동),37.4889983,126.9935739
1092,서초구,방배7호점,서울특별시 서초구 사평대로2길 16(방배동),37.4977971,126.9859895
1093,서초구,방배8호점,서울특별시 서초구 방배중앙로 185(방배동),37.4955295,126.9856131
1094,서초구,방배9호점,서울특별시 서초구 동광로19길 19(방배동),37.4933062,126.9889283
1095,서초구,방배동광점,서울특별시 서초구 동광로 55(방배동),37.4922299,126.9886589
1096,서초구,방배명성점,서울특별시 서초구 동광로 10길 21-7(방배동),37.4901108,126.9863705
1097,서초구,방배삼원점,서울특별시 서초구 방배로 22 (방배동),37.4862134,126.9956378
1098,서초구,방배역점,서울특별시 서초구 효령로 117 (방배동),37.4814265,126.9969295
1099,서초구,방배중앙로점,서울특별시 서초구 방배중앙로21길 10,37.4925657,126.9859969
1100,서초구,방배천로점,서울특별시 서초구 방배천로20길 1 1층(방배동),37.4839964,126.9829253
1101,서초구,방배효령점,서울특별시 서초구 효령로 165(서초동),37.4825013,127.0022283
1102,서초구,사평대로점,서울특별시 서초구 사평대로 362,37.5035889,127.0226473
1103,서초구,서울서초점,서울특별시 서초구 효령로 229 서울빌딩 106호,37.4849062,126.9941369
1104,서초구,서울성모병원점,서울특별시 서초구 반포대로 222,37.5003974,127.0066599
1105,서초구,서초10호점,"서울특별시 서초구 서초중앙로24길 43  (서초동, 유원서초아파트)",37.4962524,127.0182815
1106,서초구,서초13호점,서울특별시 서초구 반포대로24길 96(서초동),37.4887966,127.0140019
1107,서초구,서초14호점,서울특별시 서초구 반포대로28길 15(서초동),37.4905627,127.0092598
1108,서초구,서초16호점,서울특별시 서초구 반포대로7길 23(서초동),37.4820342,127.0108649
1109,서초구,서초17호점,서울특별시 서초구 반포대로30길 48(서초동),37.4921248,127.0112622
1110,서초구,서초19호점,서울특별시 서초구 사임당로17길 113(서초동),37.4933246,127.0187824
1111,서초구,서초20호점,서울특별시 서초구 명달로22길 4(서초동),37.4866919,127.0044578
1112,서초구,서초21호점,서울특별시 서초구 서초중앙로18길 43(서초동),37.4916314,127.016708
1113,서초구,서초강남점,"서울특별시 서초구 서초대로 389 107호, 108호(서초동, 진흥상가)",37.4972188,127.0226783
1114,서초구,서초교대역점,서울특별시 서초구 서초중앙로 122(서초동),37.4926597,127.0141445
1115,서초구,서초국제점,서울특별시 서초구 서초동 서초중앙로2길 35,37.4840408,127.0191808
1116,서초구,서초남부점,서울특별시 서초구 서초중앙로 46 1층(서초동),37.486045,127.0158608
1117,서초구,서초내곡점,서울특별시 서초구 청계산로 189 109호(신원동),37.4473672,127.0553225
1118,서초구,서초논현점,서울특별시 서초구 강남대로91길 28 (잠원동),37.5122596,127.0191499
1119,서초구,서초명달로점,서울특별시 서초구 명달로4길 62 1층(서초동),37.4806968,127.0091153
1120,서초구,서초바로세움점,서울특별시 서초구 서초대로77길 55(서초동),37.5019747,127.0244474
1121,서초구,서초반포점,서울특별시 서초구 사평대로55길 72 1층,37.5071274,127.0215651
1122,서초구,서초반포제일점,서울 서초구 반포동 주흥6길 2 지층B01호,37.5048883,127.0198277
1123,서초구,서초방배점,서울특별시 서초구 서초대로15길 47 1층 세븐일레븐(방배동),37.4885632,126.9889424
1124,서초구,서초빌라점,서울특별시 서초구 명달로 98 1층,37.4859316,127.0042564
1125,서초구,서초사당역점,서울특별시 서초구 동작대로 18 (방배동),37.4949005,126.9814193
1126,서초구,서초샤르망점,서울특별시 서초구 서초동 효령로55길 28 104호,37.4860875,127.0144728
1127,서초구,서초역사거리점,서울특별시 서초구 서초대로 248 1층(서초동),37.4918294,127.0088111
1128,서초구,서초예술점,서울특별시 서초구 서초동 남부순호나로325길 17 신빌딩101,37.484524,127.015564
1129,서초구,서초우면점,"서울특별시 서초구 바우뫼로6길 8-4 우면동, 1층코너",37.4698223,127.0254058
1130,서초구,서초중앙점,"서울특별시 서초구 반포대로23길 14 1층(서초동, 서초동매강빌딩)",37.4890625,127.007977
1131,서초구,서초테마점,서울특별시 서초구 남부순환로347길 20 1층 일부(서초동),37.4852807,127.0318695
1132,서초구,서초퍼스트점,"서울특별시 서초구 효령로72길 33 (서초동, 정동빌딩)",37.4869383,127.0269949
1133,서초구,서초페이토점,서울특별시 서초구 강남대로 265 강남로드빌딩(서초동),37.49794199999999,127.027621
1134,서초구,서초프라자점,서울특별시 서초구 강남대로61길 25 1층(서초동),37.4984044,127.0239646
1135,서초구,서초행복점,서울특별시 서초구 사임당로 180 1층 105호(서초동),37.4925425,127.0292585
1136,서초구,서초희망점,서울특별시 서초구 서초동 효령로67길 63,37.4898775,127.0225207
1137,서초구,서초힐스테이트점,"서울특별시 서초구 헌릉로8길 10-12 지1층 5호(신원동, 서초엠코타운젠트리스)",37.4661115,127.0829863
1138,서초구,양재10호점,서울특별시 서초구 바우뫼로27길 12  (양재동),37.4773918,127.0364688
1139,서초구,양재11호점,서울 서초구 양재천로 21길 28 (양재동),37.4768834,127.0394285
1140,서초구,양재12호점,서울특별시 서초구 논현로19길 15  (양재동),37.4762754,127.0446868
1141,서초구,양재4호점,서울특별시 서초구 매헌로 42  (양재동),37.4646582,127.0343861
1142,서초구,양재6호점,서울특별시 서초구 강남대로6길 84 (양재동),37.4688991,127.0450904
1143,서초구,양재7호점,서울 서초구 마방로 12 (양재동),37.4738285,127.0402839
1144,서초구,양재경원점,"서울특별시 서초구 양재천로11길 33 경원빌딩 1층(양재동, 경원빌딩)",37.4779079,127.0409381
1145,서초구,양재구룡점,서울특별시 서초구 양재동 논현로11길 10 1층,37.4737577,127.0477883
1146,서초구,양재근린공원점,"서울특별시 서초구 언남길 35, 1층 102호 (양재동, 윤공순빌딩)",37.4727441,127.0416702
1147,서초구,양재매헌점,서울특별시 서초구 언남12길 1  (양재동),37.474262,127.0444071
1148,서초구,양재바우뫼로점,서울특별시 서초구 강남대로30길 46 1층(양재동),37.4822129,127.0396305
1149,서초구,양재빌리지점 B,서울특별시 서초구 동산로6길 11  (양재동),37.4704708,127.0436754
1150,서초구,양재삼호점,서울특별시 서초구 논현로17길 4  (양재동),37.47651219999999,127.0453361
1151,서초구,양재시장점,서울특별시 서초구 남부순환로356길 15 110(양재동),37.4842744,127.0379522
1152,서초구,양재씨티점,"서울특별시 서초구 동산로2길 50 양재동 가보빌딩 (양재동, 가보빌딩)",37.4678166,127.0431643
1153,서초구,양재역점,서울특별시 서초구 남부순환로 지하 2585  (서초동),37.4810366,127.0181186
1154,서초구,양재이스타빌점,"서울특별시 서초구 논현로 151, 1층 102호 (양재동, 도곡이스타빌오피스텔)",37.4828814,127.0420609
1155,서초구,양재점,서울특별시 서초구 동산로12길 4  (양재동),37.4715154,127.0450481
1156,서초구,양재LG전자점,서울특별시 서초구 매헌로1길 26  (양재동),37.46237199999999,127.0341329
1157,서초구,영동점,서울특별시 서초구 강남대로 521-4 태영빌딩,37.5084594,127.0221335
1158,서초구,오토갤러리점,서울특별시 서초구 양재대로11길 36  (양재동),37.4617954,127.0353646
1159,서초구,잠원본점,"서울특별시 서초구 잠원로4길 34-4 104호(잠원동, 거목상가)",37.5112721,127.0104113
1160,서초구,잠원점,서울특별시 서초구 잠원로 204 한신상가훼미리,37.5190968,127.0146617
1161,서초구,잠원제일점,"서울특별시 서초구 나루터로 68 1층 1호 (잠원동, 경아빌딩)",37.5152492,127.0174174
1162,서초구,잠원중앙점,서울특별시 서초구 강남대로97길 16 서원빌딩,37.5147919,127.0188281
1163,서초구,현대슈퍼빌점,서울특별시 서초구 서초중앙로 15 111호,37.4830516,127.0161646
1164,서초구,M서초역점,서울특별시 서초구 서초대로 40길 16(서초동) 2호선서초역 224-4,37.4907099,127.007158
1165,성동구,금호대우점,"서울특별시 성동구 독서당로 274 1층 101호, 102호(금호동4가)",37.5469628,127.0198474
1166,성동구,금호본점,서울 성동구 장터1가길 8 (금호동3가),37.548449,127.0171888
1167,성동구,도선까페점,"서울특별시 성동구 왕십리로 326 101호(도선동, 지상1층)",37.5627152,127.0338928
1168,성동구,뚝섬리버빌점,서울특별시 성동구 성수동1가 13-117 뚝섬리버빌1층 106107호,37.5494271,127.0499908
1169,성동구,뚝섬역점,"서울특별시 성동구 성수동1가 656-603(상원길 19, 신한IT타워)",37.545842,127.0488434
1170,성동구,마장고운타워점,서울시 성동구 고산자로 345(마장동),37.5702068,127.0373607
1171,성동구,마장하영점,서울특별시 성동구 마조로 15길 21 1층,37.5635595,127.0393071
1172,성동구,서울도철본사점,서울특별시 성동구 천호대로 346,37.5625461,127.0572234
1173,성동구,서울시설관리공단점,서울시 성동구 청계천로 10가길 64-3(마장동),37.5712207,127.0357243
1174,성동구,성동마장점,서울 성동구 마장동 815-9번지,37.5640951,127.0414543
1175,성동구,성동샤르망점,서울특별시 성동구 고산자로 284 성동샤르망 1층 118호,37.5648694,127.0367694
1176,성동구,성동용답점,서울특별시 성동구 용답중앙13길 17,37.5656325,127.0532057
1177,성동구,성동원룸점,서울특별시 성동구 사근동2길 2,37.5610658,127.0447914
1178,성동구,성동점,서울특별시 성동구 무학로 10 1층,37.5649631,127.030348
1179,성동구,성수공고점,서울특별시 성동구 성수동1가 성덕정9길 15-10,37.5397326,127.0500322
1180,성동구,성수공단점,서울특별시 성동구 성수일로10길 13 (성수동2가),37.54745339999999,127.0523549
1181,성동구,성수아크밸리점,"서울특별시 성동구 성수이로22길 37, 1층 106호(성수동2가)",37.54388369999999,127.0613025
1182,성동구,성수에스팩토리점,"서울특별시 성동구 연무장15길 11 에스팩토리 1층 C104,105호(성수동2가)",37.5425787,127.059445
1183,성동구,성수역점,서울특별시 성동구 성수동2가 아차산로92 101호,37.5447624,127.054203
1184,성동구,성수영동교점,서울 성동구 성덕정길 145,37.5365,127.0595338
1185,성동구,성수우리큐브점,"서울특별시 성동구 연무장11길 10 1층(성수동2가, 우리큐브)",37.542731,127.0573043
1186,성동구,성수점,서울 성동구 상원길 80 26 동아그린아파트,37.5509546,127.0484909
1187,성동구,성수진동점,서울특별시 성동구 성수일로3길 2,37.5420678,127.0485327
1188,성동구,성수캐슬점,서울 성동구 성수동2가 성수일로12길 44,37.5470638,127.0553418
1189,성동구,옥수2호점,서울특별시 성동구 한림말3길 16 1층,37.5425154,127.0158658
1190,성동구,옥수점,서울특별시 성동구 독서당로 218 삼성아파트 상가 1층,37.5422884,127.0140223
1191,성동구,왕십리대로점,서울특별시 성동구 왕십리로 289 1층(행당동),37.5599172,127.0360692
1192,성동구,왕십리도선점,서울특별시 성동구 왕십리로24길 17-1 도선동,37.5640379,127.0341134
1193,성동구,왕십리센트라스2호점,서울특별시 성동구 왕십리로 410 일대 J동 1층 125호(하왕십리동),37.5015152,126.988887
1194,성동구,왕십리센트라스점,"서울특별시 성동구 왕십리로 410 C동 101호(하왕십리동,센트라스)",37.5665059,127.0264404
1195,성동구,왕십리이스타빌점,서울 성동구 왕십리로 309,37.5612833,127.0345304
1196,성동구,왕십리제일점,서울 성동구 하왕십리동 무학봉15가길 7,37.56106,127.0302616
1197,성동구,왕십리텐즈힐점,"서울특별시 성동구 마장로 137 텐즈힐 402동 117호, 118호(상왕십리동)",37.5663079,127.0369547
1198,성동구,용답본점,서울특별시 성동구 천호대로 286,37.5665699,127.0524671
1199,성동구,용답어반점,서울특별시 성동구 용답동 자동차시장1길 39,37.560612,127.0615929
1200,성동구,한양대정우점,서울특별시 성동구 왕십리로 235 정우빌딩,37.5572315,127.0413525
1201,성동구,한양대타운점,서울특별시 성동구 왕십리로 213 1층(행당동),37.5565064,127.0430047
1202,성동구,한양대학교병원점,서울특별시 성동구 사근동 110 한양대학교병원내 동관1층,37.5596479,127.0439633
1203,성동구,한양본점,서울특별시 성동구 마조로5길 8 4-27,37.5600872,127.0402266
1204,성동구,한양사이버대점,"서울특별시 성동구 왕십리로 220 사이버2관 1층(행당동, 한양사이버대학교)",,
1205,성동구,한양제일점,서울특별시 성동구 마조로 11(행당동),37.5619369,127.0402839
1206,성동구,행당미르점,서울특별시 성동구 마조로9길 11-1 1층,37.5611456,127.0400795
1207,성동구,M2뚝섬역점,서울특별시 성동구 아차산로 18 뚝섬역 210-05호(성수동1가),37.54724,127.04731
1208,성동구,S답십리역점,서울특별시 성동구 천호대로 지하 300 5호선 답십리역(지하2층) 2004호(용답동),37.567072,127.052382
1209,성동구,S마장역점,서울특별시 성동구 마장로 지하296,37.5663079,127.0369547
1210,성동구,S신금호역점,서울특별시 성동구 금호로 지하154,37.5512857,127.023034
1211,성동구,S왕십리역점,서울특별시 성동구 왕십리로 지하300,37.5611822,127.0363048
1212,성동구,S행당역점,서울 성동구 행당로 89,37.5573954,127.0288355
1213,성북구,고대2호점,서울특별시 성북구 인촌로24길 5(안암동5가),37.5859312,127.0294771
1214,성북구,고대3호점,서울특별시 성북구 인촌로24길 37(안암동5가),37.5845172,127.0295588
1215,성북구,고대4호점,서울특별시 성북구 안암로9가길 76(안암동5가),37.5822173,127.0281882
1216,성북구,고대본점,서울특별시 성북구 인촌로 145(안암동5가),37.5862871,127.0248899
1217,성북구,고대신의학관점,서울특별시 성북구 안암로 5(안암동5가),37.5790318,127.0235617
1218,성북구,고대안암고개점,서울 성북구 고려대로 49 1층,37.590799,127.0277773
1219,성북구,고대제일점,"서울특별시 성북구 인촌로26길 45-1, 1층",37.5843881,127.0301878
1220,성북구,길음뉴타운점,서울특별시 성북구 길음로 20 102(삼성래미안3차아파트단지내상가),37.6047095,127.0230189
1221,성북구,길음동부센트레빌점,"서울특별시 성북구 숭인로2길 61 (길음동, 길음동동부센트레빌아파트)",37.6103878,127.0243231
1222,성북구,돈암로데오점,"서울특별시 성북구 동소문로20나길 13, 1층(동선동1가)",37.5921626,127.0173763
1223,성북구,돈암센트레빌점,서울특별시 성북구 정릉로 376 (돈암동),37.6019694,127.0252982
1224,성북구,돈암하늘채점,서울특별시 성북구 돈암동 535 돈암코오롱하늘채아파트 상가동 102호,37.5992985,127.0129938
1225,성북구,동소문점,서울특별시 성북구 동소문동5가 118-9,37.5906189,127.01669
1226,성북구,보국문역점,서울특별시 성북구 솔샘로 71,37.6130282,127.007404
1227,성북구,보문점,서울특별시 성북구 동소문로23길 7-5(동선동4가),37.5936635,127.0173396
1228,성북구,북서울꿈의숲점,서울시 성북구 돌곶이로 221(장위동),37.6188563,127.0455523
1229,성북구,삼선동점,서울특별시 성북구 삼선교로23길 21 (삼선동4가),37.5903246,127.013819
1230,성북구,상월곡역점,서울특별시 성북구 화랑로 167,37.6069494,127.0491452
1231,성북구,서경대본점,서울특별시 성북구 정릉동 서경로 99,37.6117004,127.0131347
1232,성북구,석계화랑로점,"서울특별시 성북구 화랑로40길 26 ,1층 (석관동)",37.6131622,127.0629174
1233,성북구,석관중학교점,"서울특별시 성북구 한천로 509 코오롱아파트 상가 제1층 제101호,102호(석관동)",37.60656,127.066407
1234,성북구,석관초교점,서울시 성북구 석관동 돌곶이로 22길 28,37.6101499,127.0594951
1235,성북구,성북고대원룸점,서울 성북구 고려대로27길 24-1 1층,37.590799,127.0277773
1236,성북구,성북구청후문점,서울특별시 성북구 보문로32길 14  (삼선동5가),37.589371,127.0173507
1237,성북구,성북길음점,서울특별시 성북구 길음동 동소문로 43길 1,37.6064315,127.0273919
1238,성북구,성북돈암초교점,서울특별시 성북구 동소문로15길 12 지층전체,37.5928458,127.0139442
1239,성북구,성북동소문점,서울특별시 성북구 동소문로13가길 18 1층(1층 전체)(동소문동4가),37.5918025,127.0119039
1240,성북구,성북문화점,서울특별시 성북구 성북로 44 1층(성북동),37.5916355,127.0033978
1241,성북구,성북보문중앙점,서울특별시 성북구 보문로13다길 27 1층 (보문동6가),37.580816,127.0198792
1242,성북구,성북삼선교점,서울특별시 성북구 삼선교로11길 24 (삼선동2가),37.58869079999999,127.0100247
1243,성북구,성북성신여고점,서울특별시 성북구 동소문로26가길 40 1층(동선동3가),37.5947547,127.0211402
1244,성북구,성북성신점,서울특별시 성북구 동선동3가 보문로34다길 31,37.5925847,127.0208867
1245,성북구,성북아리랑점,서울특별시 성북구 동선동5가 146-3,37.5966255,127.0154299
1246,성북구,성북언덕점,서울특별시 성북구 동소문로32길 4 지층(동선동3가),37.596569,127.0216374
1247,성북구,성북점,서울특별시 성북구 선잠로 16 (성북동),37.5946919,126.9990438
1248,성북구,성북정릉동아점,"서울특별시 성북구 서경로 31 상가동 1층 106호(정릉동, 동아아파트)",37.6075032,127.0141959
1249,성북구,성북정릉타운점,서울특별시 성북구 정릉동 정릉로27길 41  1층,37.6056468,127.0134049
1250,성북구,성북한성대역점,서울특별시 성북구 성북로5길 2 (성북동1가),37.589226,127.0047762
1251,성북구,성북한옥촌점,서울특별시 성북구 성북로 105 (성북동),37.5926188,126.9971635
1252,성북구,성북홍익점,서울특별시 성북구 성북로 66 농협 성북동,37.59339600000001,127.0016826
1253,성북구,성신여대동선점,서울특별시 성북구 동소문로20가길 38  (동선동1가),37.5930183,127.0183106
1254,성북구,성신여대정문점,서울특별시 성북구 보문로 34나길 3 (동선동3가),37.5914376,127.0203356
1255,성북구,성신코아루점,서울특별시 성북구 동소문로20나길 47 1층,37.5929646,127.0191198
1256,성북구,월곡동덕여대점,서울특별시 성북구 화랑로11길 35 1층(하월곡동),37.6038315,127.0420919
1257,성북구,월곡동아점,서울시 성북구 상월곡동 장월로 1길 27(50-6),37.6069809,127.0462386
1258,성북구,월곡삼양점,서울특별시 성북구 오패산로17길 40(하월곡동),37.6079243,127.0338384
1259,성북구,월곡타운점,서울특별시 성북구 오패산로4길 42,37.6040494,127.0399656
1260,성북구,이문로삼거리점,서울시 성북구 석관동 돌곶이로 8길 5  1층,37.6069933,127.0615078
1261,성북구,장위은하수점,서울특별시 성북구 장위동 233-28,37.6135132,127.0482314
1262,성북구,장위행복점,서울특별시 성북구 장위로 21다길,37.6159077,127.0456208
1263,성북구,정릉대로점,서울특별시 성북구 정릉로 326 1층(정릉동),37.6020315,127.0193099
1264,성북구,정릉롯데캐슬점,"서울특별시 성북구 서경로 60,상가동 지하층 107호(정릉동,길음뉴타운 롯데캐슬골든힐스)",37.6092355,127.0142567
1265,성북구,정릉북한산점,서울특별시 성북구 보국문로 201 (정릉동),37.61772089999999,126.99899
1266,성북구,정릉삼정점,서울특별시 성북구 정릉동 (보국문로 160),37.61449289999999,127.0002306
1267,성북구,정릉온누리점,서울특별시 성북구 보국문로16길 75 (정릉동),37.6130818,127.0101364
1268,성북구,정릉이수점,서울특별시 성북구 북악산로 842 (정릉동),37.5991925,127.0177017
1269,성북구,정릉중앙점,서울 성북구 정릉동 서경로 86,37.6108342,127.0143965
1270,성북구,정릉천점,서울특별시 성북구 솔샘로18길 58 1층,37.6103446,127.0081181
1271,성북구,정릉청운점,서울특별시 성북구 보국문로8길 9 (정릉동),37.6072971,127.0110919
1272,성북구,정릉e편한세상점,"서울특별시 성북구 북악산로 851 상가동 101호,102호(정릉2차e편한세상아파트)",37.599785,127.0193858
1273,성북구,종암고대점,서울특별시 성북구 북악산로 1059(종암동),37.5926041,127.0356104
1274,성북구,종암동덕기숙사점,서울특별시 성북구 종암로 123 1층,37.6009582,127.0331516
1275,성북구,천경고대점,서울특별시 성북구 고려대로7가길 52 1층,37.5867225,127.0237172
1276,성북구,하월곡타운점,서울특별시 성북구 종암로38길 26,37.6063791,127.0328606
1277,성북구,한성대역점,서울특별시 성북구 삼선교로 4-1 1층(삼선동1가),37.5879402,127.0064827
1278,송파구,가락대림점,서울특별시 송파구 양재대로62길 19 1층(가락동),37.4980682,127.118987
1279,송파구,가락몰점,서울특별시 송파구 양재대로 932 테마동B동 지하1층 8-1호,37.492994,127.112326
1280,송파구,가락미륭점,서울특별시 송파구 동남로 167 태신빌딩 101호,37.4929672,127.1285664
1281,송파구,가락송이점,서울특별시 송파구 송이로 160,37.4927229,127.1248974
1282,송파구,가락스타점,서울특별시 송파구 송파대로30길 21 1층 일부(가락동),37.49525089999999,127.119633
1283,송파구,가락신가점,서울특별시 송파구 송이로 79 1층,37.49894889999999,127.120128
1284,송파구,가락으뜸점,"서울특별시 송파구 동남로13길 42, 1층 (가락동)",37.4943679,127.1254606
1285,송파구,가락점,서울특별시 송파구 송이로 111  (가락동),37.4966606,127.1221169
1286,송파구,가락제일빌딩점,서울특별시 송파구 송파대로 260 제일오피스텔1층 105호(가락제일빌딩점),37.4931574,127.1188468
1287,송파구,가락중앙점,서울특별시 송파구 송이로 17길 54-28(가락동),37.50079849999999,127.1262791
1288,송파구,가락IT최고점,서울특별시 송파구 중대로 135 아이티벤처타워 지하1층,37.4950603,127.1222519
1289,송파구,개롱점,서울특별시 송파구 오금로46길 3  (가락동),37.4966132,127.1365886
1290,송파구,거여본점,서울특별시 송파구 거마로 31  (거여동),37.4959102,127.1453668
1291,송파구,거여센터점,서울특별시 송파구 거마로3길 4 103호 (거여동),37.4940918,127.1442397
1292,송파구,광고회관점,서울 송파구 올림픽로 35길 141 137 한국광고문화회관,37.5159043,127.0996258
1293,송파구,롯데월드광장점,서울특별시 송파구 올림픽로 240 롯데월드 롯데백화점 잠실점 B1층(광장),37.5111158,127.098167
1294,송파구,롯데월드몰마트점,서울특별시 송파구 신천동 29번지 롯데월드몰 지하1층,37.5135884,127.1047373
1295,송파구,롯데월드몰수족관점,서울특별시 송파구 신천동 29번지,37.5130605,127.103495
1296,송파구,롯데월드몰시네마점,서울특별시 송파구 신천동 29번지 롯데월드몰 5층,37.5135884,127.1047373
1297,송파구,롯데월드아이스링크점,서울특별시 송파구 올림픽로 240,37.5112348,127.0980274
1298,송파구,롯데월드어드벤처점,서울특별시 송파구 올림픽로 240,37.5112348,127.0980274
1299,송파구,롯데월드카페거리점,서울특별시 송파구 올림픽로 240,37.5112348,127.0980274
1300,송파구,롯데월드키자니아점,서울특별시 송파구 올림픽로 240,37.5112348,127.0980274
1301,송파구,롯데월드타워1호점,서울특별시 송파구 올림픽로 300 롯데월드타워 B1층(신천동),37.5129907,127.1027322
1302,송파구,롯데월드타워스마트점,서울특별시 송파구 올림픽로 300 롯데월드타워 31층(신천동),37.5129907,127.1027322
1303,송파구,롯데월드테마광장점,서울특별시 송파구 올림픽로 240,37.5112348,127.0980274
1304,송파구,마천중앙점,서울특별시 송파구 마천로61다길 14 1층(마천동),37.4943809,127.1524612
1305,송파구,문정4호점,서울특별시 송파구 송이로36길 68(문정동) 미래빌딩1층,37.48337310000001,127.1265499
1306,송파구,문정공원점,서울특별시 송파구 문정로4길 10 1층 102호,37.48536670000001,127.1259998
1307,송파구,문정그린점,서울특별시 송파구 새말로 183 1층,37.4864285,127.1325265
1308,송파구,문정대성점,서울특별시 송파구 송파대로22길 6 1층 (문정동),37.4872288,127.1226649
1309,송파구,문정메트로시티점,"서울특별시 송파구 법원로 128, C동 107호 (문정동, 문정 SK V1 GL 메트로시티)",37.4941097,127.0106092
1310,송파구,문정문현점,서울특별시 송파구 새말로10길 22 1층(문정동),37.4809652,127.1274768
1311,송파구,문정수성점,서울특별시 송파구 정의로8길 13 수성위너스 타워 102호(문정동),37.4863001,127.1165618
1312,송파구,문정수정점,서울특별시 송파구 동남로 8길 12 (문정동),37.4898157,127.1257003
1313,송파구,문정스타점,"서울특별시 송파구 중대로 24 상가 제1동 128호(문정동, 올림픽훼밀리타운)",37.4885861,127.1153362
1314,송파구,문정아이파크점,"서울특별시 송파구 법원로4길 6 1층 136호(문정동, 문정아이파크)",37.4845484,127.1252537
1315,송파구,문정엠스테이트2호점,서울특별시 송파구 문정동 현대엠스테이트 C동 118호(법원로 114),37.4856939,127.1204327
1316,송파구,문정엠스테이트점,서울특별시 송파구 법원로 114 일원엠스테이트 B동 118호(문정동),37.4941097,127.0106092
1317,송파구,문정오벨리스크점,"서울특별시 송파구 송파대로 145 지상1층 107호(문정동, 문정오벨리스크)",37.4856859,127.1193237
1318,송파구,문정점,서울특별시 송파구 송이로 31길 30,37.4899573,127.1337929
1319,송파구,문정제일점,"서울특별시 송파구 송이로36길 52-10,1층 (문정동)",37.4838696,127.1283702
1320,송파구,문정지식센터점,서울특별시 송파구 문정동 644 현대지식산업센터 1-1,37.4851331,127.1238462
1321,송파구,문정테라타워점,서울특별시 송파구 송파대로 201 송파테라타워2 지식산업센터 A동 126호,37.4853459,127.1222177
1322,송파구,문정하비오1호점,"서울특별시 송파구 송파대로 111 하비오길 공원로 201동 101,102호(문정동)",37.4856859,127.1193237
1323,송파구,문정하비오2호점,"서울특별시 송파구 송파대로 111 하비오길 중앙로 110동 113,114호(문정동)",37.4856859,127.1193237
1324,송파구,문정홈즈타워점,서울특별시 송파구 문정동 491,37.4854246,127.1146578
1325,송파구,방이5호점,서울특별시 송파구 위례성대로16길 21 201BC빌딩,37.5108265,127.1243524
1326,송파구,방이본점,서울특별시 송파구 가락로40길 11 크로바빌 방이동 162-15 한성빌라,37.5110012,127.1203337
1327,송파구,방이상윤점,"서울특별시 송파구 오금로 175,1층(방이동)",37.5094859,127.1141067
1328,송파구,방이스타점,"서울특별시 송파구 오금로11길 33, 101~103호(방이동,신동아타워)",37.5156064,127.1105775
1329,송파구,방이시장점,서울특별시 송파구 백제고분로48가길 3,37.5120777,127.1139166
1330,송파구,방이제일점,서울특별시 송파구 오금로11길 63 JNC빌딩 (방이동),37.5149587,127.1140839
1331,송파구,방이최고점,서울특별시 송파구 방이동 올림픽로 30길 5 1층,37.51530169999999,127.1080529
1332,송파구,방이한양점,서울특별시 송파구 오금로 247 방이동 226-7건양빌딩,37.5062864,127.1208822
1333,송파구,삼전으뜸점,서울특별시 송파구 삼전로6길 6 1층(삼전동),37.5029382,127.0877447
1334,송파구,삼전일등점,서울특별시 송파구 백제고분로31길 26 1층(삼전동),37.5048532,127.095737
1335,송파구,삼전중앙점,서울특별시 송파구 삼전로10길 23 1층(삼전동),37.5053464,127.0921479
1336,송파구,삼전초교점,서울특별시 송파구 백제고분로28길 32 1층(삼전동),37.5002491,127.0910798
1337,송파구,삼전최고점,서울특별시 송파구 백제고분로 218 (삼전동),37.5032605,127.0907368
1338,송파구,서귀포항공우주박물관점,서울특별시 송파구 송파대로34길 29,37.4991204,127.1153364
1339,송파구,서울복합물류단지점,서울특별시 송파구 송파대로 55 B동 램프 1층 상업시설 S1-04호(장지동),37.4853459,127.1222177
1340,송파구,석촌3호점,서울 송파구 백제고분로 354 동일빌딩,37.5043612,127.1056401
1341,송파구,석촌동호수점,서울특별시 송파구 백제고분로41길 42-22 1층(송파동),37.5099534,127.1065454
1342,송파구,석촌배명점,서울특별시 송파구 삼학사로 32 (석촌동),37.5000422,127.0969995
1343,송파구,석촌백제점,"서울특별시 송파구 가락로11길 12,1층 103호(석촌동)",37.5013691,127.1046459
1344,송파구,석촌본점,서울특별시 송파구 삼학사로 14길 16,37.5032246,127.0988771
1345,송파구,석촌불광점,서울특별시 송파구 백제고분로39길 38 (석촌동),37.5074199,127.1032536
1346,송파구,석촌서호수점,서울특별시 송파구 석촌호수로 220 (석촌동) 102,37.5069602,127.1013431
1347,송파구,석촌중앙점,서울특별시 송파구 송파대로39길 1 1층 전체(석촌동),37.5026543,127.1087406
1348,송파구,석촌카페점,"서울특별시 송파구 석촌호수로 188 1층 102호(석촌동,신동아로쟌뷰)",37.5061888,127.0980112
1349,송파구,송파4호점,서울특별시 송파구 백제고분로27길 41 (삼전동),37.5066357,127.0938843
1350,송파구,송파가락본점,서울특별시 송파구 양재대로 62길 31,37.4971736,127.1197394
1351,송파구,송파거여점,서울특별시 송파구 양산로8길 5  (거여동),37.4919134,127.1445303
1352,송파구,송파구청본점,서울특별시 송파구 방이동 올림픽로 32길 33 (방이동),37.513471,127.1099931
1353,송파구,송파럭키점,서울특별시 송파구 백제고분로50길 29,37.5134494,127.1179217
1354,송파구,송파마천점,서울특별시 송파구 성내천로 299 1층,37.4941258,127.1557176
1355,송파구,송파삼전점,서울특별시 송파구 백제고분로32길 7 (삼전동),37.501629,127.0952488
1356,송파구,송파석촌점,서울특별시 송파구 백제고분로34길 8 (석촌동),37.5017141,127.0985921
1357,송파구,송파성내천점,서울특별시 송파구 문정로 235  (오금동),37.4992962,127.1411211
1358,송파구,송파역점,서울 송파구 송파대로38길 2-9,37.5001123,127.112434
1359,송파구,송파우리점,서울특별시 송파구 가락로 153(송파동),37.5030926,127.1126226
1360,송파구,송파은혜점,서울특별시 송파구 가락로 120,37.50150600000001,127.1092948
1361,송파구,송파일신점,서울특별시 송파구 송파동 194-4,37.5005258,127.11242
1362,송파구,송파장지점,서울특별시 송파구 장지동 844 송파파인타운 7단지 상가 103호,37.4791316,127.1308182
1363,송파구,송파점,서울특별시 송파구 송이로 18 성지빌딩,37.5033506,127.115819
1364,송파구,송파중앙점,서울특별시 송파구 잠실동 231-4,37.5076723,127.0849454
1365,송파구,송파초교점,서울특별시 송파구 백제고분로44길 9 송파동 132-16,37.508277,127.1050576
1366,송파구,송파최고점,서울특별시 송파구 백제고분로45길 22 송파동,37.5100676,127.1093183
1367,송파구,송파헬리오점,"서울특별시 송파구 송파대로 345, 1A동 1004호(가락동, 헬리오시티)",37.4976866,127.1066825
1368,송파구,신천본점,서울특별시 송파구 백제고분로 9길 30 (잠실동),37.5095819,127.0824201
1369,송파구,신천역점,서울특별시 송파구 백제고분로7길 57 1층 101호(잠실동),37.5108693,127.0851846
1370,송파구,신천제일점,서울특별시 송파구 백제고분로7길 42-25 1층일부,37.5097463,127.0839869
1371,송파구,신천최고점,"서울특별시 송파구 올림픽로 74 101호(잠실동, 잠실메르디앙)",37.5113807,127.0791031
1372,송파구,오금동양점,서울특별시 송파구 오금로35길 43-4 1층 1호,37.5066459,127.129025
1373,송파구,오금미소점,서울특별시 송파구 마천로 70,37.5075659,127.1280507
1374,송파구,오금본점,서울특별시 송파구 위례성대로 180(오금동),37.5100914,127.1309588
1375,송파구,오금우창점,"서울특별시 송파구 동남로24길 11,1층 (오금동)",37.4995816,127.1374954
1376,송파구,오금일오삼점,서울특별시 송파구 양재대로72길 8 1층(오금동),37.509467,127.1276745
1377,송파구,오금제일점,서울특별시 송파구 동남로28길 28-1 1층 일부(오금동),37.501122,127.1405324
1378,송파구,오금현대점,서울특별시 송파구 오금로 35길 18(오금동),37.5044909,127.1273614
1379,송파구,올림픽병원점,서울특별시 송파구 백제고분로 283,37.5027078,127.0979807
1380,송파구,올림픽점,서울특별시 송파구 양재대로 1222(방이동),37.5157197,127.1322328
1381,송파구,위례대길점,"서울특별시 송파구 위례광장로 193 106-2호(장지동, 대길프라자)",37.479731,127.1440429
1382,송파구,위례스퀘어점,"서울특별시 송파구 위례광장로 188 제1층 114호(장지동, 아이온스퀘어)",37.4799889,127.1436724
1383,송파구,위례아이파크1호점,"서울특별시 송파구 위례광장로 136 상가 E-109호(장지동, 위례아이파크1차)",37.4799889,127.1436724
1384,송파구,위례아이파크2호점,서울특별시 송파구 위례광장로 230 B-121호,37.479731,127.1440429
1385,송파구,위례참좋은점,"서울특별시 송파구 위례순환로 477 2동 103호, 104호",37.5024296,127.1124065
1386,송파구,잠실1호점,서울특별시 송파구 백제고분로 127 (잠실동),37.5064266,127.0814057
1387,송파구,잠실갤러리아점,서울특별시 송파구 올림픽로 212 갤러리아팰리스 A동 1층 102호,37.511007,127.094003
1388,송파구,잠실고분로점,"서울특별시 송파구 백제고분로19길 18,1층",37.5063249,127.0872239
1389,송파구,잠실광장점,"서울특별시 송파구 삼전로 9길 6 (잠실동, 바우하우스)",37.5062917,127.0887648
1390,송파구,잠실교통회관점,서울 송파구 올림픽로 319 서울시교통회관건물,37.51571,127.105958
1391,송파구,잠실롯데호텔점,서울특별시 송파구 올림픽로 240 롯데호텔월드 2층(잠실동),37.511534,127.099981
1392,송파구,잠실루터회관점,"서울특별시 송파구 올림픽로35다길 42 1층 102호(신천동, 한국루터회관)",37.5213517,127.1026097
1393,송파구,잠실역신광장점,서울특별시 송파구 잠실동 40-1,37.5112348,127.0980274
1394,송파구,잠실우성점,서울특별시 송파구 백제고분로18길 18 1층(잠실동),37.5036221,127.084133
1395,송파구,잠실주경기장점,서울특별시 송파구 올림픽로 25 (잠실동 잠실종합운동장내 24호실),37.5140929,127.0749534
1396,송파구,잠실캐슬골드점,서울 송파구 올림픽로 269 롯데캐슬골드,37.5142656,127.1004868
1397,송파구,잠실파크리오점,서울 송파구 신천동 올림픽로 435 147,37.5212927,127.1095969
1398,송파구,잠실파크인점,"서울특별시 송파구 백제고분로 187 (잠실동, 파크인-수) 106호",37.5046802,127.0877732
1399,송파구,장지대진점,"서울 송파구 새말로12길 16, 장지동, 대진프라자",37.4772984,127.1275686
1400,송파구,풍납본점,서울특별시 송파구 바람드리길 46 (풍납동),37.5371999,127.1207887
1401,송파구,풍납사거리점,서울특별시 송파구 올림픽로 509(풍납동),37.5278309,127.1183791
1402,송파구,풍납점,서울특별시 송파구 토성로 40(풍납동),37.5297319,127.1146265
1403,송파구,풍납참좋은점,서울특별시 송파구 바람드리5길 18 1층,37.5391344,127.1187179
1404,송파구,훼미리점,"서울 송파구 중대로 24 문정동, 올림픽훼미리타운",37.4896023,127.1187913
1405,송파구,M잠실나루역점,서울 송파구 송파대로 624 잠실나루역,37.5218791,127.0986358
1406,송파구,S개롱역점,서울특별시 송파구 오금로 개롱역 B1세븐일레븐  S개롱역점(가락동),37.4981619,127.1346598
1407,송파구,S거여역점,서울특별시 송파구 오금로 499 거여역 B1세븐일레븐 S거여역점,37.5033507,127.1261513
1408,송파구,S마천역점,"서울 송파구 마천로57길 지하7, 마천동",37.49502,127.15279
1409,송파구,S방이역점,서울특별시 송파구 양재대로 1127 방이동217-2방이역,37.5099679,127.1261994
1410,송파구,S오금역점,서울특별시 송파구 오금로 321,37.5032462,127.1263422
1411,송파구,S올림픽공원역점,서울특별시 송파구 양재대로 1218 올림픽선수기자촌아파트,37.5150053,127.1351556
1412,양천구,목동6호점,서울특별시 양천구 목동동로 8길 15,37.51747,126.8710248
1413,양천구,목동8단지점,"서울특별시 양천구 목동서로 295(신정동,우림필유)",37.52086329999999,126.8690483
1414,양천구,목동갈산점,서울특별시 양천구 목동남로4길 38 105호,37.5088889,126.8664556
1415,양천구,목동광장점,서울특별시 양천구 목동동로 65 센타프라자 106호,37.5155945,126.8621767
1416,양천구,목동금호점,서울특별시 양천구 목동중앙서로 47 성보주상 1층 101호,37.5332212,126.8692555
1417,양천구,목동뉴그랜드점,서울특별시 양천구 목동동로12길 57 (목동),37.5229444,126.8738458
1418,양천구,목동달마을로점,서울특별시 양천구 목동중앙본로 119 1층(목동),37.5461884,126.8712833
1419,양천구,목동달빛점,서울 양천구 신목로 2길 68(목동),37.5238265,126.8773209
1420,양천구,목동로점,"서울특별시 양천구 목동로 230(목동,현대아이파크아파트)",37.52899439999999,126.8650201
1421,양천구,목동리더스점,서울특별시 양천구 신목로 50  (신정동),37.5196853,126.8727799
1422,양천구,목동리즌빌점,"서울특별시 양천구 목동중앙본로7길 45 109호(목동, 목동보미리즌빌)",37.5391003,126.8663254
1423,양천구,목동모세미점,서울특별시 양천구 목동중앙남로 11,37.5354214,126.8684947
1424,양천구,목동사거리점,서울 양천구 목동 중앙서로 5(목동1층),37.5325923,126.8644734
1425,양천구,목동삼성쉐르빌점,"서울특별시 양천구 목동동로 189(신정동,삼성쉐르빌아파트)",37.522656,126.8704207
1426,양천구,목동서로점,서울특별시 양천구 목동서로 252 (목동),37.5247755,126.8692291
1427,양천구,목동아이스링크점,서울특별시 양천구 안양천로 939 목동실내빙상장 1층(목동),37.5307317,126.8790955
1428,양천구,목동유로점,서울특별시 양천구 목동중앙북로 114 (목동),37.5461189,126.8758029
1429,양천구,목동점,"서울특별시 양천구 목동동로 130 (신정동, 목동14단지아파트)",37.5149985,126.8725405
1430,양천구,목동제일점,"서울특별시 양천구 목동중앙본로 65 지하1층 3호(B03호)(목동, 선호빌딩)",37.5417611,126.8689703
1431,양천구,목동캐슬점,서울 양천구 목동중앙북로 38 (목동),37.5468869,126.8672611
1432,양천구,목동햇빛점,서울 양천구 목동중앙남로3길 63,37.53551520000001,126.8640885
1433,양천구,목동힐스테이트점,서울특별시 양천구 은행정로5길 40 삼오빌딩 1층 101호(신정동),37.5208635,126.8554066
1434,양천구,세븐일레븐신정점,서울특별시 양천구 오목로 215,37.5258582,126.8614021
1435,양천구,신월2호점,서울특별시 양천구 오목로 19,37.5216047,126.8396809
1436,양천구,신월3호점,서울특별시 양천구 신월로 150,37.517045,126.8404597
1437,양천구,신월동방점,서울특별시 양천구 신월로 224,37.5216834,126.8467026
1438,양천구,신월메디힐점,서울특별시 양천구 화곡로4길 17 (창미빌딩 1층),37.5379369,126.8280087
1439,양천구,신월사거리점,서울특별시 양천구 남부순환로 354 (신월동),37.5353346,126.8281785
1440,양천구,신월시장점,서울특별시 양천구 남부순환로40길 49 1층,37.5334533,126.8269158
1441,양천구,신월양지공원점,서울특별시 양천구 지양로13길 7 1층(신월동),37.5226956,126.831244
1442,양천구,신월지양로점,서울특별시 양천구 지양로 63 (신월동),37.5211718,126.834054
1443,양천구,신월하나점,서울특별시 양천구 남부순환로66길 17 (신월동),37.5227786,126.8341715
1444,양천구,신정2점,서울특별시 양천구 신정동 신월로 321 동은빌딩 1층 2호,37.5217326,126.8564827
1445,양천구,신정3호점,서울특별시 양천구 신정중앙로 62,37.5267972,126.8586228
1446,양천구,신정교점,서울특별시 양천구 신목로38 엘도라도빌딩 101,37.5189832,126.8736199
1447,양천구,신정남부점,서울특별시 양천구 오목로50길 24 1층,37.52381159999999,126.8640849
1448,양천구,신정로점,서울특별시 양천구 목동로19길 11 1층(신정동),37.5248116,126.8631331
1449,양천구,신정백암점,서울특별시 양천구 신정로 13길 22,37.5114063,126.8431156
1450,양천구,신정봄날점,서울특별시 양천구 신목로6길 34,37.5215216,126.8755228
1451,양천구,신정신서점,서울특별시 양천구 은행정로 49 1층(신정동),37.5241289,126.859142
1452,양천구,신정아크로빌점,"서울특별시 양천구 목동서로 397 (신정동, 대림아크로빌) B동 115호",37.515545,126.8601019
1453,양천구,신정역점,서울특별시 양천구 오목로 151,37.5248597,126.8541237
1454,양천구,신정은행길점,서울특별시 양천구 은행정로7길 10,37.5223396,126.8583219
1455,양천구,신정이스타빌점,서울특별시 양천구 목동서로 377 이스타빌3차아파트A동 102호,37.5160389,126.86226
1456,양천구,신정이펜하우스점,서울특별시 양천구 신정동 신정이펜하우스4단지상가동 104호,37.5133702,126.829922
1457,양천구,신정제일점,서울 양천구 신정동 973-1,37.522004,126.85288
1458,양천구,신정중앙점,서울특별시 양천구 신정중앙로23길 10 1층(신정동),37.527161,126.8635465
1459,양천구,신정타운점,서울특별시 양천구 목동동로 50 신시가지12단지아파트,37.5207402,126.8671061
1460,양천구,양천신월점,서울특별시 양천구 월정로 101 (신월동),37.5284042,126.8389794
1461,양천구,양천오목교역점,서울 양천구 오목로 54길 7(목동),37.5238883,126.8734068
1462,양천구,어바니엘염창점,"서울특별시 양천구 공항대로 630 1층 104호(목동, 어바니엘염창)",37.5466178,126.8748256
1463,양천구,S목동역점,서울 양천구 오목로  지하245 (목동),37.5245067,126.862375
1464,양천구,S신정역점,서울특별시 양천구 오목로 166 B1X14-15,37.5247506,126.85569
1465,양천구,S오목교역점,서울 양천구 오목로  지하342 (목동),37.524553,126.87505
1466,영등포구,당산2호점,서울 영등포구 당산로 104 당산동,37.5238592,126.8964767
1467,영등포구,당산3호점,서울 영등포구 영등포로 157 영등포동,37.5152785,126.9091658
1468,영등포구,당산데시앙점,서울특별시 영등포구 당산로 203 데시앙오피 108호,37.5195947,126.8974232
1469,영등포구,당산로점,서울특별시 영등포구 당산로 76 (당산동1가),37.5215568,126.8958714
1470,영등포구,당산리슈빌점,서울특별시 영등포구 당산로28길 15 (당산동3가),37.5245834,126.898379
1471,영등포구,당산메인점,서울특별시 영등포구 국회대로53길 19 1층(영등포동8가),37.5271241,126.9064003
1472,영등포구,당산양화점,서울특별시 영등포구 선유로52길 11 1층(당산동6가),37.5184411,126.8893416
1473,영등포구,당산역본점,서울특별시 영등포구 당산로 237 당산동6사,37.5348469,126.9022221
1474,영등포구,당산역점,서울특별시 영등포구 당산동 6가 양평로 241층,37.5332789,126.9035632
1475,영등포구,대림2호점,서울특별시 영등포구 대림로 251 대림동,37.5029833,126.8960206
1476,영등포구,대림로점,서울특별시 영등포구 도림로47길 1 201동 상가1층 101호,37.4954025,126.9000303
1477,영등포구,대림본점,서울특별시 영등포구 가마산로46길 6 대림동,37.5017488,126.9001577
1478,영등포구,대림성모병원점,서울특별시 영등포구 시흥대로 657 대림성모병원내,37.4906332,126.9071741
1479,영등포구,대림역본점,서울특별시 영등포구 도림천로 375 101호,37.491436,126.8961566
1480,영등포구,대림이가채점,서울특별시 영등포구 디지털로70길 16,37.492614,126.9063665
1481,영등포구,대림인성점,"서울특별시 영등포구 대림로27길 8, 1층 101호(대림동)",37.495101,126.89881
1482,영등포구,대림한신점,"서울특별시 영등포구 디지털로69길 12 대림동2차한신아파트 상가동 101호(대림동, 대림한신2차아파트)",37.4947367,126.9043954
1483,영등포구,대방역점,서울특별시 영등포구 영등포로 422 1층 9호,37.5122564,126.9247831
1484,영등포구,롯데타워점,서울특별시 영등포구 양평로21길 10 양평동5가,37.5374126,126.8928305
1485,영등포구,문래아르디세점,서울특별시 영등포구 선유로17길 24 112호,37.5210598,126.886978
1486,영등포구,문래아카데미점,"서울특별시 영등포구 선유로 59 제1층 제101호(문래동6가, 문래아카데미)",37.5191806,126.8889358
1487,영등포구,문래윤서점,서울특별시 영등포구 문래로28길 15 164 문래동,37.517436,126.8997884
1488,영등포구,문래파라곤점,서울 영등포구 선유로 11길 12 영등포동,37.5236218,126.8882017
1489,영등포구,문래하우스디점,서울특별시 영등포구 선유로3길 10 1층 4호(문래동5가),37.5154232,126.8851025
1490,영등포구,비즈센터점,서울 영등포구 양산로 53 양평동3가,37.5255894,126.8889075
1491,영등포구,신길2호점,서울특별시 영등포구 가마산로61길 19 신길동,37.5067346,126.9043656
1492,영등포구,신길대박점,서울특별시 영등포구 도신로36길 16 1층(신길동),37.50853499999999,126.9088624
1493,영등포구,신길미소점,서울특별시 영등포구 대방천로 222 (신길동),37.4982721,126.9154059
1494,영등포구,신길정원점,"서울특별시 영등포구 신길로38길 12,1층102호 (신길동, 정원쉐르빌)",,
1495,영등포구,신길행촌주유소점,서울특별시 영등포구 신길동 도신로 130,37.5085141,126.9061074
1496,영등포구,양평동SK충전소점,"서울특별시 영등포구 선유로 157, 1층 (양평동3가)",37.5279356,126.8910992
1497,영등포구,양평로리점,"서울특별시 영등포구 영등포로33,1층 105호 (양평동2가,목동비즈타워)",37.5232343,126.8851979
1498,영등포구,양평롯데점,서울 영등포구 양평로19길 12 양평동4가,37.5363881,126.8940365
1499,영등포구,양평미소점,서울특별시 영등포구 양산로3길 9 1층,37.5265461,126.8850535
1500,영등포구,양평우림점,서울특별시 영등포구 양평로 149 양평동5가,37.5388472,126.891338
1501,영등포구,양평유성점,서울특별시 영등포구 양평로30나길 14 101호,37.5433753,126.8895217
1502,영등포구,양평이엔씨타워점,서울특별시 영등포구 선유로 146 양평동3가,37.5268027,126.8918333
1503,영등포구,양평점,서울 영등포구 양평로20길 5 양평동,37.5377441,126.8955038
1504,영등포구,여의1호점,서울특별시 영등포구 국제금융로7길 22 여의도동,37.5232097,126.9330608
1505,영등포구,여의3호점,서울특별시 영등포구 국회대로74길 20 여의도동,37.529587,126.921526
1506,영등포구,여의금강점,서울특별시 영등포구 국회대로70길 22 여의도동,37.5285649,126.9206085
1507,영등포구,여의대산점,서울특별시 영등포구 국회대로70길 12 여의도동,37.5293257,126.9198576
1508,영등포구,여의도메리어트호텔점,서울 영등포구 여의대로 8 영등포동,37.5211949,126.9185924
1509,영등포구,여의도미래에셋대우점,"서울특별시 영등포구 국제금융로 56, 17층 (여의도동,대우증권빌딩)",37.5222883,126.9297152
1510,영등포구,여의도성모병원점,서울시 영등포구 63로 10(여의도동),37.5179713,126.936089
1511,영등포구,여의서울점,서울특별시 영등포구 여의나루로 117 1층 103호(여의도동),37.5261946,126.9310419
1512,영등포구,여의아이비피아점,서울특별시 영등포구 국회대로72길 4 1층(여의도동),37.5302939,126.9199036
